{
   "type": "FeatureCollection",
   "features": [
  {
    "type": "Feature",
    "geometry": {
       "type": "Point",
       "coordinates":  [ 7.569879500000001,47.5535082 ]
    },
    "properties": {
    "FIELD1":0,
    "street":"Altkircherstrasse 22",
    "plz":4054
    }
  },
  {
    "type": "Feature",
    "geometry": {
       "type": "Point",
       "coordinates":  [ 7.5775108,47.5688515 ]
    },
    "properties": {
    "FIELD1":1,
    "street":"Landskronstrasse 28",
    "plz":4056
    }
  },
  {
    "type": "Feature",
    "geometry": {
       "type": "Point",
       "coordinates":  [ 7.5887022,47.5668322 ]
    },
    "properties": {
    "FIELD1":2,
    "street":"Breisacherstrasse 61, 63",
    "plz":4057
    }
  },
  {
    "type": "Feature",
    "geometry": {
       "type": "Point",
       "coordinates":  [ 7.5971832,47.5543916 ]
    },
    "properties": {
    "FIELD1":3,
    "street":"St. Alban-Vorstadt 38, 40, 42",
    "plz":4052
    }
  },
  {
    "type": "Feature",
    "geometry": {
       "type": "Point",
       "coordinates":  [ 7.591295199999998,47.56452909999999 ]
    },
    "properties": {
    "FIELD1":4,
    "street":"Klybeckstrasse 1",
    "plz":4058
    }
  },
  {
    "type": "Feature",
    "geometry": {
       "type": "Point",
       "coordinates":  [ 7.6026016,47.5580356 ]
    },
    "properties": {
    "FIELD1":5,
    "street":"Alemannengasse 57, 59, 61, 63, 65",
    "plz":4058
    }
  },
  {
    "type": "Feature",
    "geometry": {
       "type": "Point",
       "coordinates":  [ 7.6023357,47.5577399 ]
    },
    "properties": {
    "FIELD1":6,
    "street":"Alemannengasse",
    "plz":4058
    }
  },
  {
    "type": "Feature",
    "geometry": {
       "type": "Point",
       "coordinates":  [ 7.603119400000001,47.557918 ]
    },
    "properties": {
    "FIELD1":7,
    "street":"Alemannengasse 65A",
    "plz":4058
    }
  },
  {
    "type": "Feature",
    "geometry": {
       "type": "Point",
       "coordinates":  [ 7.577441599999999,47.55461469999999 ]
    },
    "properties": {
    "FIELD1":8,
    "street":"Rütlistrasse 45",
    "plz":4051
    }
  },
  {
    "type": "Feature",
    "geometry": {
       "type": "Point",
       "coordinates":  [ 7.606897799999999,47.5510953 ]
    },
    "properties": {
    "FIELD1":9,
    "street":"Grellingerstrasse 16, 18",
    "plz":4052
    }
  },
  {
    "type": "Feature",
    "geometry": {
       "type": "Point",
       "coordinates":  [ 7.605087399999999,47.5541648 ]
    },
    "properties": {
    "FIELD1":11,
    "street":"Beim Letziturm 16",
    "plz":4052
    }
  },
  {
    "type": "Feature",
    "geometry": {
       "type": "Point",
       "coordinates":  [ 7.5741486,47.5552931 ]
    },
    "properties": {
    "FIELD1":13,
    "street":"Allschwilerstrasse 13A",
    "plz":4054
    }
  },
  {
    "type": "Feature",
    "geometry": {
       "type": "Point",
       "coordinates":  [ 7.574794299999999,47.5553647 ]
    },
    "properties": {
    "FIELD1":14,
    "street":"Rudolfstrasse 10",
    "plz":4054
    }
  },
  {
    "type": "Feature",
    "geometry": {
       "type": "Point",
       "coordinates":  [ 7.570882699999999,47.55705680000001 ]
    },
    "properties": {
    "FIELD1":15,
    "street":"Allschwilerstrasse",
    "plz":null
    }
  },
  {
    "type": "Feature",
    "geometry": {
       "type": "Point",
       "coordinates":  [ 7.5846193,47.5461788 ]
    },
    "properties": {
    "FIELD1":16,
    "street":"Güterstrasse 76, 78",
    "plz":4053
    }
  },
  {
    "type": "Feature",
    "geometry": {
       "type": "Point",
       "coordinates":  [ 7.5607352,47.5477388 ]
    },
    "properties": {
    "FIELD1":17,
    "street":"Erstfeldstrasse 71",
    "plz":4054
    }
  },
  {
    "type": "Feature",
    "geometry": {
       "type": "Point",
       "coordinates":  [ 7.5953495,47.5497623 ]
    },
    "properties": {
    "FIELD1":18,
    "street":"Gartenstrasse 64",
    "plz":4052
    }
  },
  {
    "type": "Feature",
    "geometry": {
       "type": "Point",
       "coordinates":  [ 7.5868042,47.5676261 ]
    },
    "properties": {
    "FIELD1":19,
    "street":"Unterer Rheinweg 116",
    "plz":4057
    }
  },
  {
    "type": "Feature",
    "geometry": {
       "type": "Point",
       "coordinates":  [ 7.6087047,47.5553197 ]
    },
    "properties": {
    "FIELD1":20,
    "street":"Waldenburgerstrasse 8",
    "plz":4052
    }
  },
  {
    "type": "Feature",
    "geometry": {
       "type": "Point",
       "coordinates":  [ 7.591116099999999,47.5624107 ]
    },
    "properties": {
    "FIELD1":21,
    "street":"Klingental 8",
    "plz":4058
    }
  },
  {
    "type": "Feature",
    "geometry": {
       "type": "Point",
       "coordinates":  [ 7.5894735,47.5482232 ]
    },
    "properties": {
    "FIELD1":22,
    "street":"Centralbahnplatz 8",
    "plz":4051
    }
  },
  {
    "type": "Feature",
    "geometry": {
       "type": "Point",
       "coordinates":  [ 7.5770233,47.5675032 ]
    },
    "properties": {
    "FIELD1":23,
    "street":"Vogesenstrasse 80",
    "plz":4056
    }
  },
  {
    "type": "Feature",
    "geometry": {
       "type": "Point",
       "coordinates":  [ 7.579966499999998,47.5548365 ]
    },
    "properties": {
    "FIELD1":24,
    "street":"Schützenmattstrasse 49",
    "plz":4051
    }
  },
  {
    "type": "Feature",
    "geometry": {
       "type": "Point",
       "coordinates":  [ 7.613364300000001,47.5501414 ]
    },
    "properties": {
    "FIELD1":25,
    "street":"Emanuel Büchel-Strasse 10",
    "plz":4052
    }
  },
  {
    "type": "Feature",
    "geometry": {
       "type": "Point",
       "coordinates":  [ 7.5926099,47.5835593 ]
    },
    "properties": {
    "FIELD1":26,
    "street":"Dorfstrasse 33",
    "plz":4057
    }
  },
  {
    "type": "Feature",
    "geometry": {
       "type": "Point",
       "coordinates":  [ 7.5922339,47.58345689999999 ]
    },
    "properties": {
    "FIELD1":27,
    "street":"Schulgasse 8",
    "plz":4057
    }
  },
  {
    "type": "Feature",
    "geometry": {
       "type": "Point",
       "coordinates":  [ 7.598708799999999,47.54146009999999 ]
    },
    "properties": {
    "FIELD1":28,
    "street":"Güterstrasse 272",
    "plz":4053
    }
  },
  {
    "type": "Feature",
    "geometry": {
       "type": "Point",
       "coordinates":  [ 7.5648369,47.5559601 ]
    },
    "properties": {
    "FIELD1":29,
    "street":"Morgartenring 24",
    "plz":4054
    }
  },
  {
    "type": "Feature",
    "geometry": {
       "type": "Point",
       "coordinates":  [ 7.5918668,47.53349679999999 ]
    },
    "properties": {
    "FIELD1":30,
    "street":"Hasenmattstrasse 3",
    "plz":4059
    }
  },
  {
    "type": "Feature",
    "geometry": {
       "type": "Point",
       "coordinates":  [ 7.5997999,47.56575489999999 ]
    },
    "properties": {
    "FIELD1":31,
    "street":"Isteinerstrasse 70",
    "plz":4058
    }
  },
  {
    "type": "Feature",
    "geometry": {
       "type": "Point",
       "coordinates":  [ 7.5891536,47.5383934 ]
    },
    "properties": {
    "FIELD1":32,
    "street":"Drosselstrasse 21",
    "plz":4059
    }
  },
  {
    "type": "Feature",
    "geometry": {
       "type": "Point",
       "coordinates":  [ 7.565731,47.55802910000001 ]
    },
    "properties": {
    "FIELD1":33,
    "street":"Näfelserstrasse 31",
    "plz":4055
    }
  },
  {
    "type": "Feature",
    "geometry": {
       "type": "Point",
       "coordinates":  [ 7.565908599999999,47.5578009 ]
    },
    "properties": {
    "FIELD1":34,
    "street":"Allschwilerstrasse 110",
    "plz":4055
    }
  },
  {
    "type": "Feature",
    "geometry": {
       "type": "Point",
       "coordinates":  [ 7.577119199999999,47.56228309999999 ]
    },
    "properties": {
    "FIELD1":35,
    "street":"Mittlere Strasse 75",
    "plz":4056
    }
  },
  {
    "type": "Feature",
    "geometry": {
       "type": "Point",
       "coordinates":  [ 7.5963874,47.5413428 ]
    },
    "properties": {
    "FIELD1":36,
    "street":"Liesbergerstrasse 19",
    "plz":4053
    }
  },
  {
    "type": "Feature",
    "geometry": {
       "type": "Point",
       "coordinates":  [ 7.614284199999998,47.5511294 ]
    },
    "properties": {
    "FIELD1":37,
    "street":"Gellertstrasse 45, 45",
    "plz":4052
    }
  },
  {
    "type": "Feature",
    "geometry": {
       "type": "Point",
       "coordinates":  [ 7.5849113,47.54333949999999 ]
    },
    "properties": {
    "FIELD1":38,
    "street":"Frobenstrasse 75",
    "plz":4053
    }
  },
  {
    "type": "Feature",
    "geometry": {
       "type": "Point",
       "coordinates":  [ 7.570276000000001,47.5526983 ]
    },
    "properties": {
    "FIELD1":39,
    "street":"Wanderstrasse 7",
    "plz":4054
    }
  },
  {
    "type": "Feature",
    "geometry": {
       "type": "Point",
       "coordinates":  [ 7.592648399999999,47.5850932 ]
    },
    "properties": {
    "FIELD1":40,
    "street":"Weilerweg 3",
    "plz":4057
    }
  },
  {
    "type": "Feature",
    "geometry": {
       "type": "Point",
       "coordinates":  [ 7.5893598,47.5229542 ]
    },
    "properties": {
    "FIELD1":41,
    "street":"Predigerhofstrasse",
    "plz":null
    }
  },
  {
    "type": "Feature",
    "geometry": {
       "type": "Point",
       "coordinates":  [ 7.5929519,47.5613225 ]
    },
    "properties": {
    "FIELD1":42,
    "street":"Greifengasse 36, 38",
    "plz":4058
    }
  },
  {
    "type": "Feature",
    "geometry": {
       "type": "Point",
       "coordinates":  [ 7.5959242,47.5689812 ]
    },
    "properties": {
    "FIELD1":44,
    "street":"Bläsiring 161",
    "plz":4057
    }
  },
  {
    "type": "Feature",
    "geometry": {
       "type": "Point",
       "coordinates":  [ 7.576074999999999,47.5656516 ]
    },
    "properties": {
    "FIELD1":46,
    "street":"Am Krayenrain 3, 5, 7, 9",
    "plz":4056
    }
  },
  {
    "type": "Feature",
    "geometry": {
       "type": "Point",
       "coordinates":  [ 7.595659299999999,47.5331324 ]
    },
    "properties": {
    "FIELD1":47,
    "street":"Gundeldingerrain 171, 173, 175, 177, 179",
    "plz":4059
    }
  },
  {
    "type": "Feature",
    "geometry": {
       "type": "Point",
       "coordinates":  [ 7.574427099999999,47.554554 ]
    },
    "properties": {
    "FIELD1":49,
    "street":"Thannerstrasse 30",
    "plz":4054
    }
  },
  {
    "type": "Feature",
    "geometry": {
       "type": "Point",
       "coordinates":  [ 7.584465799999998,47.5537495 ]
    },
    "properties": {
    "FIELD1":50,
    "street":"Holbeinstrasse 27",
    "plz":4051
    }
  },
  {
    "type": "Feature",
    "geometry": {
       "type": "Point",
       "coordinates":  [ 7.608901899999999,47.5463527 ]
    },
    "properties": {
    "FIELD1":51,
    "street":"Sissacherstrasse 33",
    "plz":4052
    }
  },
  {
    "type": "Feature",
    "geometry": {
       "type": "Point",
       "coordinates":  [ 7.5690025,47.5589054 ]
    },
    "properties": {
    "FIELD1":52,
    "street":"Bartenheimerstrasse 56",
    "plz":4055
    }
  },
  {
    "type": "Feature",
    "geometry": {
       "type": "Point",
       "coordinates":  [ 7.575765100000001,47.5639701 ]
    },
    "properties": {
    "FIELD1":53,
    "street":"Mittlere Strasse 112",
    "plz":4056
    }
  },
  {
    "type": "Feature",
    "geometry": {
       "type": "Point",
       "coordinates":  [ 7.5878934,47.5389346 ]
    },
    "properties": {
    "FIELD1":54,
    "street":"Starenstrasse 28",
    "plz":4059
    }
  },
  {
    "type": "Feature",
    "geometry": {
       "type": "Point",
       "coordinates":  [ 7.5954357,47.5325502 ]
    },
    "properties": {
    "FIELD1":55,
    "street":"Bruderholzallee 172, 172A",
    "plz":4059
    }
  },
  {
    "type": "Feature",
    "geometry": {
       "type": "Point",
       "coordinates":  [ 7.621137399999999,47.5504312 ]
    },
    "properties": {
    "FIELD1":56,
    "street":"Lehenmattsrasse 189",
    "plz":4052
    }
  },
  {
    "type": "Feature",
    "geometry": {
       "type": "Point",
       "coordinates":  [ 7.5847858,47.5633296 ]
    },
    "properties": {
    "FIELD1":57,
    "street":"St. Johanns-Vorstadt 26",
    "plz":4056
    }
  },
  {
    "type": "Feature",
    "geometry": {
       "type": "Point",
       "coordinates":  [ 7.5639962,47.563758 ]
    },
    "properties": {
    "FIELD1":58,
    "street":"Hegenheimerstrasse 197",
    "plz":4055
    }
  },
  {
    "type": "Feature",
    "geometry": {
       "type": "Point",
       "coordinates":  [ 7.582192900000001,47.5462243 ]
    },
    "properties": {
    "FIELD1":59,
    "street":"Dachsfelderstrasse 21",
    "plz":4053
    }
  },
  {
    "type": "Feature",
    "geometry": {
       "type": "Point",
       "coordinates":  [ 7.606394300000001,47.5674126 ]
    },
    "properties": {
    "FIELD1":60,
    "street":"Schwarzwaldallee",
    "plz":null
    }
  },
  {
    "type": "Feature",
    "geometry": {
       "type": "Point",
       "coordinates":  [ 7.6200397,47.5481796 ]
    },
    "properties": {
    "FIELD1":62,
    "street":"Lehenmattstrasse 242, 244, 248, 248A",
    "plz":4052
    }
  },
  {
    "type": "Feature",
    "geometry": {
       "type": "Point",
       "coordinates":  [ 7.585669099999999,47.5578827 ]
    },
    "properties": {
    "FIELD1":63,
    "street":"Nadelberg 23",
    "plz":4051
    }
  },
  {
    "type": "Feature",
    "geometry": {
       "type": "Point",
       "coordinates":  [ 7.603568500000001,47.5613439 ]
    },
    "properties": {
    "FIELD1":64,
    "street":"Wettsteinallee 79",
    "plz":4058
    }
  },
  {
    "type": "Feature",
    "geometry": {
       "type": "Point",
       "coordinates":  [ 7.591419799999999,47.569176 ]
    },
    "properties": {
    "FIELD1":65,
    "street":"Amerbachstrasse 16",
    "plz":4057
    }
  },
  {
    "type": "Feature",
    "geometry": {
       "type": "Point",
       "coordinates":  [ 7.5909182,47.5259913 ]
    },
    "properties": {
    "FIELD1":66,
    "street":"Bedrettostrasse 11",
    "plz":4059
    }
  },
  {
    "type": "Feature",
    "geometry": {
       "type": "Point",
       "coordinates":  [ 7.580844099999999,47.5501497 ]
    },
    "properties": {
    "FIELD1":67,
    "street":"Bachlettenstrasse 7",
    "plz":4054
    }
  },
  {
    "type": "Feature",
    "geometry": {
       "type": "Point",
       "coordinates":  [ 7.600112299999998,47.5476603 ]
    },
    "properties": {
    "FIELD1":68,
    "street":"Hagenbachstrasse 12",
    "plz":4052
    }
  },
  {
    "type": "Feature",
    "geometry": {
       "type": "Point",
       "coordinates":  [ 7.600152400000001,47.5482913 ]
    },
    "properties": {
    "FIELD1":69,
    "street":"Sevogelstrasse 107",
    "plz":4052
    }
  },
  {
    "type": "Feature",
    "geometry": {
       "type": "Point",
       "coordinates":  [ 7.5697214,47.554039 ]
    },
    "properties": {
    "FIELD1":70,
    "street":"Sennheimerstrasse 49",
    "plz":4054
    }
  },
  {
    "type": "Feature",
    "geometry": {
       "type": "Point",
       "coordinates":  [ 7.6190318,47.5525971 ]
    },
    "properties": {
    "FIELD1":71,
    "street":"Birsstrasse 54",
    "plz":4052
    }
  },
  {
    "type": "Feature",
    "geometry": {
       "type": "Point",
       "coordinates":  [ 7.586393899999999,47.5399867 ]
    },
    "properties": {
    "FIELD1":72,
    "street":"Unterer Batterieweg 46",
    "plz":4053
    }
  },
  {
    "type": "Feature",
    "geometry": {
       "type": "Point",
       "coordinates":  [ 7.596029300000001,47.572381 ]
    },
    "properties": {
    "FIELD1":73,
    "street":"Rheinweilerweg 21",
    "plz":4057
    }
  },
  {
    "type": "Feature",
    "geometry": {
       "type": "Point",
       "coordinates":  [ 7.582413399999999,47.5557239 ]
    },
    "properties": {
    "FIELD1":74,
    "street":"Schützengraben 15",
    "plz":4051
    }
  },
  {
    "type": "Feature",
    "geometry": {
       "type": "Point",
       "coordinates":  [ 7.5571071,47.54513069999999 ]
    },
    "properties": {
    "FIELD1":75,
    "street":"In den Ziegelhöfen 158",
    "plz":4054
    }
  },
  {
    "type": "Feature",
    "geometry": {
       "type": "Point",
       "coordinates":  [ 7.605087699999999,47.5500187 ]
    },
    "properties": {
    "FIELD1":76,
    "street":"Hardstrasse 58",
    "plz":4052
    }
  },
  {
    "type": "Feature",
    "geometry": {
       "type": "Point",
       "coordinates":  [ 7.5708106,47.5486146 ]
    },
    "properties": {
    "FIELD1":77,
    "street":"Mariasteinstrasse 22",
    "plz":4054
    }
  },
  {
    "type": "Feature",
    "geometry": {
       "type": "Point",
       "coordinates":  [ 7.578411999999998,47.5548114 ]
    },
    "properties": {
    "FIELD1":79,
    "street":"Austrasse 77",
    "plz":4051
    }
  },
  {
    "type": "Feature",
    "geometry": {
       "type": "Point",
       "coordinates":  [ 7.6018407,47.5394915 ]
    },
    "properties": {
    "FIELD1":80,
    "street":"Dornacherstrasse 317",
    "plz":4053
    }
  },
  {
    "type": "Feature",
    "geometry": {
       "type": "Point",
       "coordinates":  [ 7.604002500000001,47.5641943 ]
    },
    "properties": {
    "FIELD1":81,
    "street":"Mattenstrasse 2",
    "plz":4058
    }
  },
  {
    "type": "Feature",
    "geometry": {
       "type": "Point",
       "coordinates":  [ 7.6176441,47.5666564 ]
    },
    "properties": {
    "FIELD1":82,
    "street":"Käferholzstrasse 50",
    "plz":4058
    }
  },
  {
    "type": "Feature",
    "geometry": {
       "type": "Point",
       "coordinates":  [ 7.6014856,47.5406252 ]
    },
    "properties": {
    "FIELD1":83,
    "street":"Güterstrasse 308",
    "plz":4053
    }
  },
  {
    "type": "Feature",
    "geometry": {
       "type": "Point",
       "coordinates":  [ 7.596997099999999,47.5408923 ]
    },
    "properties": {
    "FIELD1":84,
    "street":"Thiersteinerallee 62",
    "plz":4053
    }
  },
  {
    "type": "Feature",
    "geometry": {
       "type": "Point",
       "coordinates":  [ 7.6106726,47.5475822 ]
    },
    "properties": {
    "FIELD1":86,
    "street":"Karl Jaspers-Allee 4",
    "plz":4052
    }
  },
  {
    "type": "Feature",
    "geometry": {
       "type": "Point",
       "coordinates":  [ 7.596500199999999,47.5435641 ]
    },
    "properties": {
    "FIELD1":88,
    "street":"Schillerstrasse 31",
    "plz":4053
    }
  },
  {
    "type": "Feature",
    "geometry": {
       "type": "Point",
       "coordinates":  [ 7.595254799999999,47.5406646 ]
    },
    "properties": {
    "FIELD1":89,
    "street":"J. J. Balmer-Strasse 1",
    "plz":4053
    }
  },
  {
    "type": "Feature",
    "geometry": {
       "type": "Point",
       "coordinates":  [ 7.5951127,47.5406275 ]
    },
    "properties": {
    "FIELD1":90,
    "street":"J. J. Balmer-Strasse 3, 5, 7, 9",
    "plz":4053
    }
  },
  {
    "type": "Feature",
    "geometry": {
       "type": "Point",
       "coordinates":  [ 7.594665699999999,47.5407483 ]
    },
    "properties": {
    "FIELD1":91,
    "street":"J. J. Balmer- Strasse 6, 8, 10",
    "plz":4053
    }
  },
  {
    "type": "Feature",
    "geometry": {
       "type": "Point",
       "coordinates":  [ 7.5944854,47.540437 ]
    },
    "properties": {
    "FIELD1":92,
    "street":"J. J. Balmer-Strasse 10",
    "plz":4053
    }
  },
  {
    "type": "Feature",
    "geometry": {
       "type": "Point",
       "coordinates":  [ 7.602018999999999,47.53698199999999 ]
    },
    "properties": {
    "FIELD1":93,
    "street":"Fürstensteinerstrasse 95, 97",
    "plz":4053
    }
  },
  {
    "type": "Feature",
    "geometry": {
       "type": "Point",
       "coordinates":  [ 7.599307,47.5374712 ]
    },
    "properties": {
    "FIELD1":94,
    "street":"Fürstensteinerstrasse",
    "plz":4053
    }
  },
  {
    "type": "Feature",
    "geometry": {
       "type": "Point",
       "coordinates":  [ 7.589173700000001,47.556072 ]
    },
    "properties": {
    "FIELD1":95,
    "street":"Falknerstrasse 13",
    "plz":4001
    }
  },
  {
    "type": "Feature",
    "geometry": {
       "type": "Point",
       "coordinates":  [ 7.587661599999999,47.5653586 ]
    },
    "properties": {
    "FIELD1":96,
    "street":"Feldbergstrasse 4",
    "plz":4057
    }
  },
  {
    "type": "Feature",
    "geometry": {
       "type": "Point",
       "coordinates":  [ 7.576221400000001,47.5657414 ]
    },
    "properties": {
    "FIELD1":98,
    "street":"Am Krayenrain 1",
    "plz":4056
    }
  },
  {
    "type": "Feature",
    "geometry": {
       "type": "Point",
       "coordinates":  [ 7.5814273,47.54964529999999 ]
    },
    "properties": {
    "FIELD1":101,
    "street":"Pelikanweg 9",
    "plz":4054
    }
  },
  {
    "type": "Feature",
    "geometry": {
       "type": "Point",
       "coordinates":  [ 7.586922500000001,47.5447189 ]
    },
    "properties": {
    "FIELD1":102,
    "street":"Gempenstrasse 22",
    "plz":4053
    }
  },
  {
    "type": "Feature",
    "geometry": {
       "type": "Point",
       "coordinates":  [ 7.5682004,47.5623509 ]
    },
    "properties": {
    "FIELD1":103,
    "street":"Häsingerstrasse 38",
    "plz":4055
    }
  },
  {
    "type": "Feature",
    "geometry": {
       "type": "Point",
       "coordinates":  [ 7.5961541,47.5626314 ]
    },
    "properties": {
    "FIELD1":104,
    "street":"Clarastrasse 19",
    "plz":4058
    }
  },
  {
    "type": "Feature",
    "geometry": {
       "type": "Point",
       "coordinates":  [ 7.6026653,47.5539691 ]
    },
    "properties": {
    "FIELD1":106,
    "street":"St. Alban-Tal 42",
    "plz":4052
    }
  },
  {
    "type": "Feature",
    "geometry": {
       "type": "Point",
       "coordinates":  [ 7.591098000000001,47.531004 ]
    },
    "properties": {
    "FIELD1":108,
    "street":"Im tiefen Boden 23",
    "plz":4059
    }
  },
  {
    "type": "Feature",
    "geometry": {
       "type": "Point",
       "coordinates":  [ 7.5916126,47.5765412 ]
    },
    "properties": {
    "FIELD1":110,
    "street":"Gärtnerstrasse 50",
    "plz":4057
    }
  },
  {
    "type": "Feature",
    "geometry": {
       "type": "Point",
       "coordinates":  [ 7.5650632,47.546482 ]
    },
    "properties": {
    "FIELD1":111,
    "street":"Holeestrasse 159",
    "plz":4054
    }
  },
  {
    "type": "Feature",
    "geometry": {
       "type": "Point",
       "coordinates":  [ 7.6008028,47.5482173 ]
    },
    "properties": {
    "FIELD1":112,
    "street":"Jacob Burckhardt-Strasse 14",
    "plz":4052
    }
  },
  {
    "type": "Feature",
    "geometry": {
       "type": "Point",
       "coordinates":  [ 7.5780668,47.5498023 ]
    },
    "properties": {
    "FIELD1":113,
    "street":"Oberwilerstrasse 38",
    "plz":4054
    }
  },
  {
    "type": "Feature",
    "geometry": {
       "type": "Point",
       "coordinates":  [ 7.577840999999999,47.5498205 ]
    },
    "properties": {
    "FIELD1":114,
    "street":"Schweizergasse 26",
    "plz":4054
    }
  },
  {
    "type": "Feature",
    "geometry": {
       "type": "Point",
       "coordinates":  [ 7.590366,47.5677744 ]
    },
    "properties": {
    "FIELD1":115,
    "street":"Klybeckstrasse 69",
    "plz":4057
    }
  },
  {
    "type": "Feature",
    "geometry": {
       "type": "Point",
       "coordinates":  [ 7.589967199999999,47.5677299 ]
    },
    "properties": {
    "FIELD1":116,
    "street":"Oetlingerstrasse 51, 53",
    "plz":4057
    }
  },
  {
    "type": "Feature",
    "geometry": {
       "type": "Point",
       "coordinates":  [ 7.572806399999998,47.5445921 ]
    },
    "properties": {
    "FIELD1":117,
    "street":"Holeestrasse 37",
    "plz":4054
    }
  },
  {
    "type": "Feature",
    "geometry": {
       "type": "Point",
       "coordinates":  [ 7.606192799999999,47.5507995 ]
    },
    "properties": {
    "FIELD1":119,
    "street":"Rennweg 32",
    "plz":4052
    }
  },
  {
    "type": "Feature",
    "geometry": {
       "type": "Point",
       "coordinates":  [ 7.600802,47.53857559999999 ]
    },
    "properties": {
    "FIELD1":120,
    "street":"Falkensteinerstrasse 54",
    "plz":4053
    }
  },
  {
    "type": "Feature",
    "geometry": {
       "type": "Point",
       "coordinates":  [ 7.5645772,47.5472454 ]
    },
    "properties": {
    "FIELD1":121,
    "street":"Gotthardstrasse 2",
    "plz":4054
    }
  },
  {
    "type": "Feature",
    "geometry": {
       "type": "Point",
       "coordinates":  [ 7.6008789,47.5621388 ]
    },
    "properties": {
    "FIELD1":123,
    "street":"Riehenring 32",
    "plz":4058
    }
  },
  {
    "type": "Feature",
    "geometry": {
       "type": "Point",
       "coordinates":  [ 7.562446599999999,47.5466284 ]
    },
    "properties": {
    "FIELD1":124,
    "street":"Neuweilerstrasse 38",
    "plz":4054
    }
  },
  {
    "type": "Feature",
    "geometry": {
       "type": "Point",
       "coordinates":  [ 7.6093671,47.5547252 ]
    },
    "properties": {
    "FIELD1":125,
    "street":"Waldenburgerstrasse 21",
    "plz":4052
    }
  },
  {
    "type": "Feature",
    "geometry": {
       "type": "Point",
       "coordinates":  [ 7.5877196,47.5385391 ]
    },
    "properties": {
    "FIELD1":127,
    "street":"Amselstrasse 35",
    "plz":4059
    }
  },
  {
    "type": "Feature",
    "geometry": {
       "type": "Point",
       "coordinates":  [ 7.5770722,47.5717775 ]
    },
    "properties": {
    "FIELD1":128,
    "street":"Elsässerstrasse",
    "plz":4056
    }
  },
  {
    "type": "Feature",
    "geometry": {
       "type": "Point",
       "coordinates":  [ 7.599403799999999,47.5285315 ]
    },
    "properties": {
    "FIELD1":129,
    "street":"Seltisbergerstrasse 43",
    "plz":4059
    }
  },
  {
    "type": "Feature",
    "geometry": {
       "type": "Point",
       "coordinates":  [ 7.5999911,47.5584569 ]
    },
    "properties": {
    "FIELD1":130,
    "street":"Römergasse 30",
    "plz":4058
    }
  },
  {
    "type": "Feature",
    "geometry": {
       "type": "Point",
       "coordinates":  [ 7.565836699999998,47.5462188 ]
    },
    "properties": {
    "FIELD1":131,
    "street":"Holeestrasse 151, 151A, 151B, 151C, 153, 153A, 153B, 153C",
    "plz":4054
    }
  },
  {
    "type": "Feature",
    "geometry": {
       "type": "Point",
       "coordinates":  [ 7.5802396,47.5534995 ]
    },
    "properties": {
    "FIELD1":133,
    "street":"Burgunderstrasse 13",
    "plz":4051
    }
  },
  {
    "type": "Feature",
    "geometry": {
       "type": "Point",
       "coordinates":  [ 7.586876900000001,47.5363907 ]
    },
    "properties": {
    "FIELD1":135,
    "street":"Unterer Batterieweg 163",
    "plz":4059
    }
  },
  {
    "type": "Feature",
    "geometry": {
       "type": "Point",
       "coordinates":  [ 7.5910338,47.57158099999999 ]
    },
    "properties": {
    "FIELD1":136,
    "street":"Erikastrasse 1",
    "plz":4057
    }
  },
  {
    "type": "Feature",
    "geometry": {
       "type": "Point",
       "coordinates":  [ 7.5817334,47.5548343 ]
    },
    "properties": {
    "FIELD1":137,
    "street":"Eulerstrasse 16",
    "plz":4051
    }
  },
  {
    "type": "Feature",
    "geometry": {
       "type": "Point",
       "coordinates":  [ 7.5962978,47.53933749999999 ]
    },
    "properties": {
    "FIELD1":138,
    "street":"Thiersteinerstrasse 167",
    "plz":4053
    }
  },
  {
    "type": "Feature",
    "geometry": {
       "type": "Point",
       "coordinates":  [ 7.5777185,47.5486785 ]
    },
    "properties": {
    "FIELD1":139,
    "street":"Rotbergerstrasse 13",
    "plz":4054
    }
  },
  {
    "type": "Feature",
    "geometry": {
       "type": "Point",
       "coordinates":  [ 7.616454000000001,47.5644278 ]
    },
    "properties": {
    "FIELD1":140,
    "street":"Bäumlihofstrasse 98",
    "plz":4058
    }
  },
  {
    "type": "Feature",
    "geometry": {
       "type": "Point",
       "coordinates":  [ 7.594384499999999,47.537694 ]
    },
    "properties": {
    "FIELD1":141,
    "street":"Bruderholzrain 22, 24",
    "plz":4059
    }
  },
  {
    "type": "Feature",
    "geometry": {
       "type": "Point",
       "coordinates":  [ 7.595240599999999,47.54418860000001 ]
    },
    "properties": {
    "FIELD1":142,
    "street":"Bruderholzstrasse 31",
    "plz":4053
    }
  },
  {
    "type": "Feature",
    "geometry": {
       "type": "Point",
       "coordinates":  [ 7.594616,47.5623995 ]
    },
    "properties": {
    "FIELD1":143,
    "street":"Claragraben 78",
    "plz":4058
    }
  },
  {
    "type": "Feature",
    "geometry": {
       "type": "Point",
       "coordinates":  [ 7.5954078,47.5692178 ]
    },
    "properties": {
    "FIELD1":144,
    "street":"Amerbachstrasse 80",
    "plz":4057
    }
  },
  {
    "type": "Feature",
    "geometry": {
       "type": "Point",
       "coordinates":  [ 7.5636152,47.5505472 ]
    },
    "properties": {
    "FIELD1":145,
    "street":"Oberalpstrasse 87",
    "plz":4054
    }
  },
  {
    "type": "Feature",
    "geometry": {
       "type": "Point",
       "coordinates":  [ 7.5933874,47.56944319999999 ]
    },
    "properties": {
    "FIELD1":146,
    "street":"Amerbachstrasse 45",
    "plz":4057
    }
  },
  {
    "type": "Feature",
    "geometry": {
       "type": "Point",
       "coordinates":  [ 7.620630999999999,47.5657524 ]
    },
    "properties": {
    "FIELD1":147,
    "street":"Rümmingerstrasse 17",
    "plz":4058
    }
  },
  {
    "type": "Feature",
    "geometry": {
       "type": "Point",
       "coordinates":  [ 7.5811369,47.5503382 ]
    },
    "properties": {
    "FIELD1":148,
    "street":"Bachlettenstrasse 1",
    "plz":4054
    }
  },
  {
    "type": "Feature",
    "geometry": {
       "type": "Point",
       "coordinates":  [ 7.5849299,47.562592 ]
    },
    "properties": {
    "FIELD1":149,
    "street":"St. Johanns-Vorstadt 7",
    "plz":4056
    }
  },
  {
    "type": "Feature",
    "geometry": {
       "type": "Point",
       "coordinates":  [ 7.5981065,47.5387862 ]
    },
    "properties": {
    "FIELD1":151,
    "street":"Gundeldingerstrasse 391",
    "plz":4053
    }
  },
  {
    "type": "Feature",
    "geometry": {
       "type": "Point",
       "coordinates":  [ 7.5714766,47.5493243 ]
    },
    "properties": {
    "FIELD1":152,
    "street":"Benkenstrasse 10, 12",
    "plz":4054
    }
  },
  {
    "type": "Feature",
    "geometry": {
       "type": "Point",
       "coordinates":  [ 7.574214899999999,47.5500407 ]
    },
    "properties": {
    "FIELD1":153,
    "street":"Marschalkenstrasse 27",
    "plz":4054
    }
  },
  {
    "type": "Feature",
    "geometry": {
       "type": "Point",
       "coordinates":  [ 7.592508499999998,47.5770954 ]
    },
    "properties": {
    "FIELD1":154,
    "street":"Wiesenstrasse 6",
    "plz":4057
    }
  },
  {
    "type": "Feature",
    "geometry": {
       "type": "Point",
       "coordinates":  [ 7.612082099999999,47.5562051 ]
    },
    "properties": {
    "FIELD1":155,
    "street":"Homburgerstrasse 4",
    "plz":4052
    }
  },
  {
    "type": "Feature",
    "geometry": {
       "type": "Point",
       "coordinates":  [ 7.5989412,47.5292696 ]
    },
    "properties": {
    "FIELD1":156,
    "street":"Bürenfluhstrasse 20",
    "plz":4059
    }
  },
  {
    "type": "Feature",
    "geometry": {
       "type": "Point",
       "coordinates":  [ 7.5923634,47.5420092 ]
    },
    "properties": {
    "FIELD1":157,
    "street":"Dornacherstrasse 172",
    "plz":4053
    }
  },
  {
    "type": "Feature",
    "geometry": {
       "type": "Point",
       "coordinates":  [ 7.6182845,47.5674109 ]
    },
    "properties": {
    "FIELD1":158,
    "street":"Binzenstrasse 25",
    "plz":4058
    }
  },
  {
    "type": "Feature",
    "geometry": {
       "type": "Point",
       "coordinates":  [ 7.606104299999999,47.5480116 ]
    },
    "properties": {
    "FIELD1":159,
    "street":"Hirzbodenweg 108",
    "plz":4052
    }
  },
  {
    "type": "Feature",
    "geometry": {
       "type": "Point",
       "coordinates":  [ 7.602089299999999,47.559961 ]
    },
    "properties": {
    "FIELD1":161,
    "street":"Chrischonastrasse 39, 39A–D, 41, 41A–D",
    "plz":4058
    }
  },
  {
    "type": "Feature",
    "geometry": {
       "type": "Point",
       "coordinates":  [ 7.606198699999999,47.5613169 ]
    },
    "properties": {
    "FIELD1":162,
    "street":"Wettsteinallee",
    "plz":4058
    }
  },
  {
    "type": "Feature",
    "geometry": {
       "type": "Point",
       "coordinates":  [ 7.5841372,47.5544986 ]
    },
    "properties": {
    "FIELD1":163,
    "street":"Holbeinstrasse 14",
    "plz":4051
    }
  },
  {
    "type": "Feature",
    "geometry": {
       "type": "Point",
       "coordinates":  [ 7.569546399999999,47.5536256 ]
    },
    "properties": {
    "FIELD1":167,
    "street":"Altkircherstrasse 30",
    "plz":4054
    }
  },
  {
    "type": "Feature",
    "geometry": {
       "type": "Point",
       "coordinates":  [ 7.5750272,47.5715977 ]
    },
    "properties": {
    "FIELD1":168,
    "street":"Hüningerstrasse 31, 33",
    "plz":4056
    }
  },
  {
    "type": "Feature",
    "geometry": {
       "type": "Point",
       "coordinates":  [ 7.6020029,47.548624 ]
    },
    "properties": {
    "FIELD1":169,
    "street":"Engelgasse 82",
    "plz":4052
    }
  },
  {
    "type": "Feature",
    "geometry": {
       "type": "Point",
       "coordinates":  [ 7.564180200000001,47.5479024 ]
    },
    "properties": {
    "FIELD1":170,
    "street":"Oberalpstrasse 7",
    "plz":4054
    }
  },
  {
    "type": "Feature",
    "geometry": {
       "type": "Point",
       "coordinates":  [ 7.5945977,47.5418761 ]
    },
    "properties": {
    "FIELD1":171,
    "street":"Baumgartenweg 19",
    "plz":4053
    }
  },
  {
    "type": "Feature",
    "geometry": {
       "type": "Point",
       "coordinates":  [ 7.573270600000001,47.54958310000001 ]
    },
    "properties": {
    "FIELD1":172,
    "street":"Marschalkenstrasse 42",
    "plz":4054
    }
  },
  {
    "type": "Feature",
    "geometry": {
       "type": "Point",
       "coordinates":  [ 7.601416599999999,47.5485039 ]
    },
    "properties": {
    "FIELD1":173,
    "street":"Jacob Burckhardt-Strasse 5",
    "plz":4052
    }
  },
  {
    "type": "Feature",
    "geometry": {
       "type": "Point",
       "coordinates":  [ 7.6028123,47.54878069999999 ]
    },
    "properties": {
    "FIELD1":175,
    "street":"Engelgasse 79",
    "plz":4052
    }
  },
  {
    "type": "Feature",
    "geometry": {
       "type": "Point",
       "coordinates":  [ 7.5846136,47.5538055 ]
    },
    "properties": {
    "FIELD1":176,
    "street":"Leonhardsstrasse 37",
    "plz":4051
    }
  },
  {
    "type": "Feature",
    "geometry": {
       "type": "Point",
       "coordinates":  [ 7.595847399999999,47.5654647 ]
    },
    "properties": {
    "FIELD1":178,
    "street":"Sperrstrasse 82",
    "plz":4057
    }
  },
  {
    "type": "Feature",
    "geometry": {
       "type": "Point",
       "coordinates":  [ 7.601589599999999,47.5572905 ]
    },
    "properties": {
    "FIELD1":179,
    "street":"Schaffhauserrheinweg 61",
    "plz":4058
    }
  },
  {
    "type": "Feature",
    "geometry": {
       "type": "Point",
       "coordinates":  [ 7.6027842,47.5396341 ]
    },
    "properties": {
    "FIELD1":180,
    "street":"Reinacherstrasse 64",
    "plz":4053
    }
  },
  {
    "type": "Feature",
    "geometry": {
       "type": "Point",
       "coordinates":  [ 7.6030478,47.54759319999999 ]
    },
    "properties": {
    "FIELD1":182,
    "street":"Andreas Heusler-Strasse 12",
    "plz":4052
    }
  },
  {
    "type": "Feature",
    "geometry": {
       "type": "Point",
       "coordinates":  [ 7.579743,47.5672012 ]
    },
    "properties": {
    "FIELD1":183,
    "street":"Fatiostrasse 10",
    "plz":4056
    }
  },
  {
    "type": "Feature",
    "geometry": {
       "type": "Point",
       "coordinates":  [ 7.5767403,47.55056829999999 ]
    },
    "properties": {
    "FIELD1":185,
    "street":"Birsigstrasse 127",
    "plz":4054
    }
  },
  {
    "type": "Feature",
    "geometry": {
       "type": "Point",
       "coordinates":  [ 7.5992036,47.52819900000001 ]
    },
    "properties": {
    "FIELD1":186,
    "street":"Im Spitzacker 12",
    "plz":4059
    }
  },
  {
    "type": "Feature",
    "geometry": {
       "type": "Point",
       "coordinates":  [ 7.5656743,47.56006199999999 ]
    },
    "properties": {
    "FIELD1":187,
    "street":"Grienstrasse 115",
    "plz":4055
    }
  },
  {
    "type": "Feature",
    "geometry": {
       "type": "Point",
       "coordinates":  [ 7.5782766,47.5640211 ]
    },
    "properties": {
    "FIELD1":188,
    "street":"Metzerstrasse 9",
    "plz":4056
    }
  },
  {
    "type": "Feature",
    "geometry": {
       "type": "Point",
       "coordinates":  [ 7.5830722,47.5663513 ]
    },
    "properties": {
    "FIELD1":189,
    "street":"Rheinschanze 12",
    "plz":4056
    }
  },
  {
    "type": "Feature",
    "geometry": {
       "type": "Point",
       "coordinates":  [ 7.578324299999999,47.5638861 ]
    },
    "properties": {
    "FIELD1":192,
    "street":"Rheinländerstrasse 4",
    "plz":4056
    }
  },
  {
    "type": "Feature",
    "geometry": {
       "type": "Point",
       "coordinates":  [ 7.5830873,47.554365 ]
    },
    "properties": {
    "FIELD1":193,
    "street":"Leimenstrasse 21",
    "plz":4051
    }
  },
  {
    "type": "Feature",
    "geometry": {
       "type": "Point",
       "coordinates":  [ 7.570616599999999,47.5560976 ]
    },
    "properties": {
    "FIELD1":194,
    "street":"Eichenstrasse 19",
    "plz":4054
    }
  },
  {
    "type": "Feature",
    "geometry": {
       "type": "Point",
       "coordinates":  [ 7.5882346,47.567294 ]
    },
    "properties": {
    "FIELD1":195,
    "street":"Oetlingerstrasse 18",
    "plz":4057
    }
  },
  {
    "type": "Feature",
    "geometry": {
       "type": "Point",
       "coordinates":  [ 7.558912800000001,47.55066 ]
    },
    "properties": {
    "FIELD1":196,
    "street":"Weiherhofstrasse 34, 34A, 36",
    "plz":4054
    }
  },
  {
    "type": "Feature",
    "geometry": {
       "type": "Point",
       "coordinates":  [ 7.5773493,47.5625218 ]
    },
    "properties": {
    "FIELD1":197,
    "street":"Mittlere Strasse 60",
    "plz":4056
    }
  },
  {
    "type": "Feature",
    "geometry": {
       "type": "Point",
       "coordinates":  [ 7.5927391,47.5796519 ]
    },
    "properties": {
    "FIELD1":198,
    "street":"Bändelgasse 1",
    "plz":4057
    }
  },
  {
    "type": "Feature",
    "geometry": {
       "type": "Point",
       "coordinates":  [ 7.615136000000001,47.5598869 ]
    },
    "properties": {
    "FIELD1":199,
    "street":"Eisenbahnweg 10",
    "plz":4058
    }
  },
  {
    "type": "Feature",
    "geometry": {
       "type": "Point",
       "coordinates":  [ 7.5763237,47.5641673 ]
    },
    "properties": {
    "FIELD1":200,
    "street":"Hebelstrasse 133",
    "plz":4056
    }
  },
  {
    "type": "Feature",
    "geometry": {
       "type": "Point",
       "coordinates":  [ 7.613420400000001,47.5551059 ]
    },
    "properties": {
    "FIELD1":201,
    "street":"Farnsburgerstrasse 34",
    "plz":4052
    }
  },
  {
    "type": "Feature",
    "geometry": {
       "type": "Point",
       "coordinates":  [ 7.596153399999999,47.5655633 ]
    },
    "properties": {
    "FIELD1":203,
    "street":"Sperrstrasse 88",
    "plz":4057
    }
  },
  {
    "type": "Feature",
    "geometry": {
       "type": "Point",
       "coordinates":  [ 7.6041426,47.5493994 ]
    },
    "properties": {
    "FIELD1":204,
    "street":"Angensteinerstrasse 26",
    "plz":4052
    }
  },
  {
    "type": "Feature",
    "geometry": {
       "type": "Point",
       "coordinates":  [ 7.606760599999999,47.5532727 ]
    },
    "properties": {
    "FIELD1":205,
    "street":"Zürcherstrasse 19",
    "plz":4052
    }
  },
  {
    "type": "Feature",
    "geometry": {
       "type": "Point",
       "coordinates":  [ 7.590254499999999,47.5659668 ]
    },
    "properties": {
    "FIELD1":207,
    "street":"Feldbergstrasse 42",
    "plz":4057
    }
  },
  {
    "type": "Feature",
    "geometry": {
       "type": "Point",
       "coordinates":  [ 7.600965200000001,47.5660603 ]
    },
    "properties": {
    "FIELD1":208,
    "street":"Bleichestrasse 19",
    "plz":4058
    }
  },
  {
    "type": "Feature",
    "geometry": {
       "type": "Point",
       "coordinates":  [ 7.577209,47.567386 ]
    },
    "properties": {
    "FIELD1":209,
    "street":"Vogesenstrasse 78",
    "plz":4056
    }
  },
  {
    "type": "Feature",
    "geometry": {
       "type": "Point",
       "coordinates":  [ 7.6001414,47.5676961 ]
    },
    "properties": {
    "FIELD1":210,
    "street":"Schönaustrasse 20, 22",
    "plz":4058
    }
  },
  {
    "type": "Feature",
    "geometry": {
       "type": "Point",
       "coordinates":  [ 7.598491399999999,47.5342618 ]
    },
    "properties": {
    "FIELD1":211,
    "street":"Niklaus von Flüe-Strasse 24",
    "plz":4059
    }
  },
  {
    "type": "Feature",
    "geometry": {
       "type": "Point",
       "coordinates":  [ 7.5948013,47.5329597 ]
    },
    "properties": {
    "FIELD1":212,
    "street":"Bruderholzallee",
    "plz":4059
    }
  },
  {
    "type": "Feature",
    "geometry": {
       "type": "Point",
       "coordinates":  [ 7.567655499999999,47.5682772 ]
    },
    "properties": {
    "FIELD1":213,
    "street":"Luzernerring 89",
    "plz":4056
    }
  },
  {
    "type": "Feature",
    "geometry": {
       "type": "Point",
       "coordinates":  [ 7.6155528,47.5467289 ]
    },
    "properties": {
    "FIELD1":215,
    "street":"Gellertstrasse",
    "plz":4052
    }
  },
  {
    "type": "Feature",
    "geometry": {
       "type": "Point",
       "coordinates":  [ 7.613830399999999,47.55049150000001 ]
    },
    "properties": {
    "FIELD1":216,
    "street":"Emanuel Büchel-Strasse 2, 4",
    "plz":4052
    }
  },
  {
    "type": "Feature",
    "geometry": {
       "type": "Point",
       "coordinates":  [ 7.606716499999999,47.53991629999999 ]
    },
    "properties": {
    "FIELD1":217,
    "street":"Münchensteinerstrasse 81",
    "plz":4052
    }
  },
  {
    "type": "Feature",
    "geometry": {
       "type": "Point",
       "coordinates":  [ 7.606808399999999,47.5395744 ]
    },
    "properties": {
    "FIELD1":218,
    "street":"Münchensteinerstrasse 97",
    "plz":4052
    }
  },
  {
    "type": "Feature",
    "geometry": {
       "type": "Point",
       "coordinates":  [ 7.597167100000001,47.5852531 ]
    },
    "properties": {
    "FIELD1":219,
    "street":"Südquaistrasse",
    "plz":4057
    }
  },
  {
    "type": "Feature",
    "geometry": {
       "type": "Point",
       "coordinates":  [ 7.596534999999999,47.5383031 ]
    },
    "properties": {
    "FIELD1":221,
    "street":"Thiersteinerrain 13, 15",
    "plz":4053
    }
  },
  {
    "type": "Feature",
    "geometry": {
       "type": "Point",
       "coordinates":  [ 7.561711099999998,47.5486245 ]
    },
    "properties": {
    "FIELD1":223,
    "street":"Furkastrasse 66",
    "plz":4054
    }
  },
  {
    "type": "Feature",
    "geometry": {
       "type": "Point",
       "coordinates":  [ 7.5770246,47.557736 ]
    },
    "properties": {
    "FIELD1":224,
    "street":"Birmannsgasse 24",
    "plz":4055
    }
  },
  {
    "type": "Feature",
    "geometry": {
       "type": "Point",
       "coordinates":  [ 7.610557799999999,47.5614418 ]
    },
    "properties": {
    "FIELD1":227,
    "street":"Schwarzwaldallee 67",
    "plz":4058
    }
  },
  {
    "type": "Feature",
    "geometry": {
       "type": "Point",
       "coordinates":  [ 7.5773112,47.5504148 ]
    },
    "properties": {
    "FIELD1":228,
    "street":"Therwilerstrasse 19",
    "plz":4054
    }
  },
  {
    "type": "Feature",
    "geometry": {
       "type": "Point",
       "coordinates":  [ 7.5726938,47.5579569 ]
    },
    "properties": {
    "FIELD1":229,
    "street":"Rufacherstrasse 12",
    "plz":4055
    }
  },
  {
    "type": "Feature",
    "geometry": {
       "type": "Point",
       "coordinates":  [ 7.573845299999999,47.5562018 ]
    },
    "properties": {
    "FIELD1":230,
    "street":"Allschwilerstrasse 26",
    "plz":4055
    }
  },
  {
    "type": "Feature",
    "geometry": {
       "type": "Point",
       "coordinates":  [ 7.5688539,47.5524211 ]
    },
    "properties": {
    "FIELD1":231,
    "street":"Gotthelfstrasse 19",
    "plz":4054
    }
  },
  {
    "type": "Feature",
    "geometry": {
       "type": "Point",
       "coordinates":  [ 7.590471399999999,47.55610160000001 ]
    },
    "properties": {
    "FIELD1":234,
    "street":"Freie Strasse 53",
    "plz":4001
    }
  },
  {
    "type": "Feature",
    "geometry": {
       "type": "Point",
       "coordinates":  [ 7.5770855,47.5487797 ]
    },
    "properties": {
    "FIELD1":235,
    "street":"Oberwilerstrasse 64",
    "plz":4054
    }
  },
  {
    "type": "Feature",
    "geometry": {
       "type": "Point",
       "coordinates":  [ 7.587097499999999,47.5392954 ]
    },
    "properties": {
    "FIELD1":236,
    "street":"Unterer Batterieweg 81",
    "plz":4059
    }
  },
  {
    "type": "Feature",
    "geometry": {
       "type": "Point",
       "coordinates":  [ 7.577933300000001,47.5699484 ]
    },
    "properties": {
    "FIELD1":237,
    "street":"Wattstrasse 14",
    "plz":4056
    }
  },
  {
    "type": "Feature",
    "geometry": {
       "type": "Point",
       "coordinates":  [ 7.564196199999999,47.5603767 ]
    },
    "properties": {
    "FIELD1":238,
    "street":"Wasgenring 90, 92, 94",
    "plz":4055
    }
  },
  {
    "type": "Feature",
    "geometry": {
       "type": "Point",
       "coordinates":  [ 7.595553,47.5648381 ]
    },
    "properties": {
    "FIELD1":239,
    "street":"Hammerstrasse",
    "plz":null
    }
  },
  {
    "type": "Feature",
    "geometry": {
       "type": "Point",
       "coordinates":  [ 7.570004,47.5535268 ]
    },
    "properties": {
    "FIELD1":240,
    "street":"Altkircherstrasse 20",
    "plz":4054
    }
  },
  {
    "type": "Feature",
    "geometry": {
       "type": "Point",
       "coordinates":  [ 7.566386000000001,47.57399849999999 ]
    },
    "properties": {
    "FIELD1":243,
    "street":"Neudorfstrasse",
    "plz":4056
    }
  },
  {
    "type": "Feature",
    "geometry": {
       "type": "Point",
       "coordinates":  [ 7.567721799999999,47.5512442 ]
    },
    "properties": {
    "FIELD1":244,
    "street":"St. Galler-Ring 204",
    "plz":4054
    }
  },
  {
    "type": "Feature",
    "geometry": {
       "type": "Point",
       "coordinates":  [ 7.567629399999999,47.5515051 ]
    },
    "properties": {
    "FIELD1":245,
    "street":"St. Galler-Ring 198",
    "plz":4054
    }
  },
  {
    "type": "Feature",
    "geometry": {
       "type": "Point",
       "coordinates":  [ 7.594912099999999,47.5546106 ]
    },
    "properties": {
    "FIELD1":247,
    "street":"Dufourstrasse 5, 7",
    "plz":4052
    }
  },
  {
    "type": "Feature",
    "geometry": {
       "type": "Point",
       "coordinates":  [ 7.586456900000001,47.5573917 ]
    },
    "properties": {
    "FIELD1":248,
    "street":"Spalenberg 10",
    "plz":4051
    }
  },
  {
    "type": "Feature",
    "geometry": {
       "type": "Point",
       "coordinates":  [ 7.561843,47.5482017 ]
    },
    "properties": {
    "FIELD1":249,
    "street":"Furkastrasse 50",
    "plz":4054
    }
  },
  {
    "type": "Feature",
    "geometry": {
       "type": "Point",
       "coordinates":  [ 7.577773499999999,47.5647232 ]
    },
    "properties": {
    "FIELD1":251,
    "street":"St. Johanns-Ring 40",
    "plz":4056
    }
  },
  {
    "type": "Feature",
    "geometry": {
       "type": "Point",
       "coordinates":  [ 7.5647712,47.5506628 ]
    },
    "properties": {
    "FIELD1":252,
    "street":"Schöllenenstrasse 5",
    "plz":4054
    }
  },
  {
    "type": "Feature",
    "geometry": {
       "type": "Point",
       "coordinates":  [ 7.5697132,47.56699 ]
    },
    "properties": {
    "FIELD1":253,
    "street":"Glaserbergstrasse 19, 21, 23",
    "plz":4056
    }
  },
  {
    "type": "Feature",
    "geometry": {
       "type": "Point",
       "coordinates":  [ 7.5692606,47.5666577 ]
    },
    "properties": {
    "FIELD1":254,
    "street":"Glaserbergstrasse 25, 27, 29",
    "plz":4056
    }
  },
  {
    "type": "Feature",
    "geometry": {
       "type": "Point",
       "coordinates":  [ 7.573905399999999,47.55897179999999 ]
    },
    "properties": {
    "FIELD1":255,
    "street":"Türkheimerstrasse 42",
    "plz":4055
    }
  },
  {
    "type": "Feature",
    "geometry": {
       "type": "Point",
       "coordinates":  [ 7.590146399999999,47.579214 ]
    },
    "properties": {
    "FIELD1":256,
    "street":"Rastatterstrasse 43",
    "plz":4057
    }
  },
  {
    "type": "Feature",
    "geometry": {
       "type": "Point",
       "coordinates":  [ 7.5689822,47.5451091 ]
    },
    "properties": {
    "FIELD1":257,
    "street":"Holeestrasse 97, 99, 101, 103, 105, 107",
    "plz":4054
    }
  },
  {
    "type": "Feature",
    "geometry": {
       "type": "Point",
       "coordinates":  [ 7.586974499999999,47.5667625 ]
    },
    "properties": {
    "FIELD1":261,
    "street":"Unterer Rheinweg 98",
    "plz":4057
    }
  },
  {
    "type": "Feature",
    "geometry": {
       "type": "Point",
       "coordinates":  [ 7.564666,47.5511126 ]
    },
    "properties": {
    "FIELD1":262,
    "street":"Schöllenenstrasse 25",
    "plz":4054
    }
  },
  {
    "type": "Feature",
    "geometry": {
       "type": "Point",
       "coordinates":  [ 7.585224699999999,47.5465864 ]
    },
    "properties": {
    "FIELD1":263,
    "street":"Güterstrasse 81",
    "plz":4053
    }
  },
  {
    "type": "Feature",
    "geometry": {
       "type": "Point",
       "coordinates":  [ 7.5945833,47.5437526 ]
    },
    "properties": {
    "FIELD1":264,
    "street":"Bruderholzstrasse 20",
    "plz":4053
    }
  },
  {
    "type": "Feature",
    "geometry": {
       "type": "Point",
       "coordinates":  [ 7.597992199999999,47.55478799999999 ]
    },
    "properties": {
    "FIELD1":265,
    "street":"Mühlenberg 7",
    "plz":4052
    }
  },
  {
    "type": "Feature",
    "geometry": {
       "type": "Point",
       "coordinates":  [ 7.590560000000001,47.5427072 ]
    },
    "properties": {
    "FIELD1":267,
    "street":"Dornacherstrasse 136, 138, 140, 142",
    "plz":4053
    }
  },
  {
    "type": "Feature",
    "geometry": {
       "type": "Point",
       "coordinates":  [ 7.5844862,47.5314561 ]
    },
    "properties": {
    "FIELD1":268,
    "street":"Friedrich Oser-Strasse 22",
    "plz":4059
    }
  },
  {
    "type": "Feature",
    "geometry": {
       "type": "Point",
       "coordinates":  [ 7.6017324,47.5702346 ]
    },
    "properties": {
    "FIELD1":270,
    "street":"Erlenmattstrasse",
    "plz":4058
    }
  },
  {
    "type": "Feature",
    "geometry": {
       "type": "Point",
       "coordinates":  [ 7.6017318,47.53861930000001 ]
    },
    "properties": {
    "FIELD1":272,
    "street":"Arlesheimerstrasse 45, 47, 49",
    "plz":4053
    }
  },
  {
    "type": "Feature",
    "geometry": {
       "type": "Point",
       "coordinates":  [ 7.563278299999999,47.54850589999999 ]
    },
    "properties": {
    "FIELD1":273,
    "street":"Gotthardstrasse 42",
    "plz":4054
    }
  },
  {
    "type": "Feature",
    "geometry": {
       "type": "Point",
       "coordinates":  [ 7.5997253,47.53748 ]
    },
    "properties": {
    "FIELD1":274,
    "street":"Fürstensteinerstrasse 63",
    "plz":4053
    }
  },
  {
    "type": "Feature",
    "geometry": {
       "type": "Point",
       "coordinates":  [ 7.576984599999999,47.5525557 ]
    },
    "properties": {
    "FIELD1":277,
    "street":"Bundesstrasse 5",
    "plz":4054
    }
  },
  {
    "type": "Feature",
    "geometry": {
       "type": "Point",
       "coordinates":  [ 7.5900544,47.5656883 ]
    },
    "properties": {
    "FIELD1":278,
    "street":"Kandererstrasse 19",
    "plz":4057
    }
  },
  {
    "type": "Feature",
    "geometry": {
       "type": "Point",
       "coordinates":  [ 7.568670699999999,47.5590407 ]
    },
    "properties": {
    "FIELD1":279,
    "street":"Sierenzerstrasse 57",
    "plz":4055
    }
  },
  {
    "type": "Feature",
    "geometry": {
       "type": "Point",
       "coordinates":  [ 7.5722365,47.555256 ]
    },
    "properties": {
    "FIELD1":280,
    "street":"Herrengrabenweg 25",
    "plz":4054
    }
  },
  {
    "type": "Feature",
    "geometry": {
       "type": "Point",
       "coordinates":  [ 7.557883400000001,47.5477651 ]
    },
    "properties": {
    "FIELD1":281,
    "street":"Weiherhofstrasse 132",
    "plz":4054
    }
  },
  {
    "type": "Feature",
    "geometry": {
       "type": "Point",
       "coordinates":  [ 7.5761363,47.5450382 ]
    },
    "properties": {
    "FIELD1":282,
    "street":"Schönmattstrasse 15, 17, 19, 21",
    "plz":4054
    }
  },
  {
    "type": "Feature",
    "geometry": {
       "type": "Point",
       "coordinates":  [ 7.575919899999999,47.5447701 ]
    },
    "properties": {
    "FIELD1":283,
    "street":"Schönmattstrasse",
    "plz":4054
    }
  },
  {
    "type": "Feature",
    "geometry": {
       "type": "Point",
       "coordinates":  [ 7.597721600000001,47.541435 ]
    },
    "properties": {
    "FIELD1":284,
    "street":"Thiersteinerallee",
    "plz":4053
    }
  },
  {
    "type": "Feature",
    "geometry": {
       "type": "Point",
       "coordinates":  [ 7.5969595,47.5616653 ]
    },
    "properties": {
    "FIELD1":287,
    "street":"Clarahofweg 20",
    "plz":4058
    }
  },
  {
    "type": "Feature",
    "geometry": {
       "type": "Point",
       "coordinates":  [ 7.613143,47.555601 ]
    },
    "properties": {
    "FIELD1":288,
    "street":"Farnsburgerstrasse 28",
    "plz":4052
    }
  },
  {
    "type": "Feature",
    "geometry": {
       "type": "Point",
       "coordinates":  [ 7.558471599999999,47.5494193 ]
    },
    "properties": {
    "FIELD1":289,
    "street":"Weiherhofstrasse 66",
    "plz":4054
    }
  },
  {
    "type": "Feature",
    "geometry": {
       "type": "Point",
       "coordinates":  [ 7.560906699999999,47.5512336 ]
    },
    "properties": {
    "FIELD1":291,
    "street":"Im langen Loh 120",
    "plz":4054
    }
  },
  {
    "type": "Feature",
    "geometry": {
       "type": "Point",
       "coordinates":  [ 7.5967893,47.5679254 ]
    },
    "properties": {
    "FIELD1":292,
    "street":"Oetlingerstrasse 190",
    "plz":4057
    }
  },
  {
    "type": "Feature",
    "geometry": {
       "type": "Point",
       "coordinates":  [ 7.586054099999999,47.5606839 ]
    },
    "properties": {
    "FIELD1":293,
    "street":"Petersgasse 32",
    "plz":4051
    }
  },
  {
    "type": "Feature",
    "geometry": {
       "type": "Point",
       "coordinates":  [ 7.580681099999999,47.5676109 ]
    },
    "properties": {
    "FIELD1":294,
    "street":"Elsässerstrasse 17",
    "plz":4056
    }
  },
  {
    "type": "Feature",
    "geometry": {
       "type": "Point",
       "coordinates":  [ 7.581459499999999,47.5511486 ]
    },
    "properties": {
    "FIELD1":295,
    "street":"Byfangweg 47",
    "plz":4051
    }
  },
  {
    "type": "Feature",
    "geometry": {
       "type": "Point",
       "coordinates":  [ 7.5975794,47.5641486 ]
    },
    "properties": {
    "FIELD1":297,
    "street":"Brantgasse 4",
    "plz":4057
    }
  },
  {
    "type": "Feature",
    "geometry": {
       "type": "Point",
       "coordinates":  [ 7.603912499999999,47.5414645 ]
    },
    "properties": {
    "FIELD1":299,
    "street":"Münchensteinerstrasse",
    "plz":null
    }
  },
  {
    "type": "Feature",
    "geometry": {
       "type": "Point",
       "coordinates":  [ 7.5962864,47.562674 ]
    },
    "properties": {
    "FIELD1":302,
    "street":"Clarastrasse 21",
    "plz":4058
    }
  },
  {
    "type": "Feature",
    "geometry": {
       "type": "Point",
       "coordinates":  [ 7.601993500000001,47.5547088 ]
    },
    "properties": {
    "FIELD1":303,
    "street":"St. Alban-Rheinweg 70",
    "plz":4052
    }
  },
  {
    "type": "Feature",
    "geometry": {
       "type": "Point",
       "coordinates":  [ 7.567359499999999,47.5523803 ]
    },
    "properties": {
    "FIELD1":304,
    "street":"St. Galler-Ring 176",
    "plz":4054
    }
  },
  {
    "type": "Feature",
    "geometry": {
       "type": "Point",
       "coordinates":  [ 7.5753847,47.5555165 ]
    },
    "properties": {
    "FIELD1":307,
    "street":"Spalenring 132",
    "plz":4055
    }
  },
  {
    "type": "Feature",
    "geometry": {
       "type": "Point",
       "coordinates":  [ 7.571197399999999,47.554604 ]
    },
    "properties": {
    "FIELD1":308,
    "street":"Herrengrabenweg 50",
    "plz":4054
    }
  },
  {
    "type": "Feature",
    "geometry": {
       "type": "Point",
       "coordinates":  [ 7.573018399999999,47.5533109 ]
    },
    "properties": {
    "FIELD1":309,
    "street":"Weiherweg 86",
    "plz":4054
    }
  },
  {
    "type": "Feature",
    "geometry": {
       "type": "Point",
       "coordinates":  [ 7.569940399999999,47.5620792 ]
    },
    "properties": {
    "FIELD1":310,
    "street":"Strassburgerallee 75",
    "plz":4055
    }
  },
  {
    "type": "Feature",
    "geometry": {
       "type": "Point",
       "coordinates":  [ 7.5914758,47.5423117 ]
    },
    "properties": {
    "FIELD1":311,
    "street":"Dornacherstrasse 152",
    "plz":4053
    }
  },
  {
    "type": "Feature",
    "geometry": {
       "type": "Point",
       "coordinates":  [ 7.6116129,47.55491070000001 ]
    },
    "properties": {
    "FIELD1":312,
    "street":"Zürcherstrasse 105",
    "plz":4052
    }
  },
  {
    "type": "Feature",
    "geometry": {
       "type": "Point",
       "coordinates":  [ 7.5772192,47.5661719 ]
    },
    "properties": {
    "FIELD1":313,
    "street":"Vogesenstrasse 49",
    "plz":4056
    }
  },
  {
    "type": "Feature",
    "geometry": {
       "type": "Point",
       "coordinates":  [ 7.588206400000001,47.5413848 ]
    },
    "properties": {
    "FIELD1":315,
    "street":"Röschenzerstrasse 3",
    "plz":4053
    }
  },
  {
    "type": "Feature",
    "geometry": {
       "type": "Point",
       "coordinates":  [ 7.6209205,47.5649245 ]
    },
    "properties": {
    "FIELD1":316,
    "street":"Rümmingerstrasse 52",
    "plz":4058
    }
  },
  {
    "type": "Feature",
    "geometry": {
       "type": "Point",
       "coordinates":  [ 7.5638133,47.5500433 ]
    },
    "properties": {
    "FIELD1":319,
    "street":"Oberalpstrasse 69",
    "plz":4054
    }
  },
  {
    "type": "Feature",
    "geometry": {
       "type": "Point",
       "coordinates":  [ 7.579867999999998,47.5678415 ]
    },
    "properties": {
    "FIELD1":320,
    "street":"Jungstrasse 8",
    "plz":4056
    }
  },
  {
    "type": "Feature",
    "geometry": {
       "type": "Point",
       "coordinates":  [ 7.594041299999999,47.53449699999999 ]
    },
    "properties": {
    "FIELD1":321,
    "street":"Thiersteinerrain 170",
    "plz":4059
    }
  },
  {
    "type": "Feature",
    "geometry": {
       "type": "Point",
       "coordinates":  [ 7.5857941,47.5531025 ]
    },
    "properties": {
    "FIELD1":322,
    "street":"Steinengraben 42",
    "plz":4051
    }
  },
  {
    "type": "Feature",
    "geometry": {
       "type": "Point",
       "coordinates":  [ 7.598919399999999,47.5352685 ]
    },
    "properties": {
    "FIELD1":323,
    "street":"Niklaus von Flüe-Strasse 35",
    "plz":4059
    }
  },
  {
    "type": "Feature",
    "geometry": {
       "type": "Point",
       "coordinates":  [ 7.573427,47.5498501 ]
    },
    "properties": {
    "FIELD1":324,
    "street":"Kluserstrasse 16",
    "plz":4054
    }
  },
  {
    "type": "Feature",
    "geometry": {
       "type": "Point",
       "coordinates":  [ 7.620057600000001,47.5651597 ]
    },
    "properties": {
    "FIELD1":325,
    "street":"Käferholzstrasse 129",
    "plz":4058
    }
  },
  {
    "type": "Feature",
    "geometry": {
       "type": "Point",
       "coordinates":  [ 7.5890467,47.5643898 ]
    },
    "properties": {
    "FIELD1":326,
    "street":"Florastrasse 34",
    "plz":4057
    }
  },
  {
    "type": "Feature",
    "geometry": {
       "type": "Point",
       "coordinates":  [ 7.5860156,47.5580842 ]
    },
    "properties": {
    "FIELD1":327,
    "street":"Andreasplatz 7, 8, 12, 14",
    "plz":4051
    }
  },
  {
    "type": "Feature",
    "geometry": {
       "type": "Point",
       "coordinates":  [ 7.5860474,47.5582376 ]
    },
    "properties": {
    "FIELD1":328,
    "street":"Andreasplatz 12, 14",
    "plz":4051
    }
  },
  {
    "type": "Feature",
    "geometry": {
       "type": "Point",
       "coordinates":  [ 7.5860156,47.5580842 ]
    },
    "properties": {
    "FIELD1":329,
    "street":"Andreasplatz 7, 8",
    "plz":4051
    }
  },
  {
    "type": "Feature",
    "geometry": {
       "type": "Point",
       "coordinates":  [ 7.6143806,47.5642691 ]
    },
    "properties": {
    "FIELD1":330,
    "street":"Paracelsusstrasse 15",
    "plz":4058
    }
  },
  {
    "type": "Feature",
    "geometry": {
       "type": "Point",
       "coordinates":  [ 7.5903345,47.5379961 ]
    },
    "properties": {
    "FIELD1":331,
    "street":"Lerchenstrasse 61",
    "plz":4059
    }
  },
  {
    "type": "Feature",
    "geometry": {
       "type": "Point",
       "coordinates":  [ 7.562338899999999,47.5500988 ]
    },
    "properties": {
    "FIELD1":333,
    "street":"Gotthardstrasse 98",
    "plz":4054
    }
  },
  {
    "type": "Feature",
    "geometry": {
       "type": "Point",
       "coordinates":  [ 7.592068,47.545027 ]
    },
    "properties": {
    "FIELD1":334,
    "street":"Pfeffingerstrasse 16",
    "plz":4053
    }
  },
  {
    "type": "Feature",
    "geometry": {
       "type": "Point",
       "coordinates":  [ 7.606975,47.5502858 ]
    },
    "properties": {
    "FIELD1":335,
    "street":"Grellingerstrasse 27",
    "plz":4052
    }
  },
  {
    "type": "Feature",
    "geometry": {
       "type": "Point",
       "coordinates":  [ 7.614881500000001,47.5550048 ]
    },
    "properties": {
    "FIELD1":336,
    "street":"Liestalerstrasse 29",
    "plz":4052
    }
  },
  {
    "type": "Feature",
    "geometry": {
       "type": "Point",
       "coordinates":  [ 7.5595598,47.5489326 ]
    },
    "properties": {
    "FIELD1":337,
    "street":"Paradieshofstrasse 87",
    "plz":4054
    }
  },
  {
    "type": "Feature",
    "geometry": {
       "type": "Point",
       "coordinates":  [ 7.5873219,47.5674455 ]
    },
    "properties": {
    "FIELD1":338,
    "street":"Oetlingerstrasse 7",
    "plz":4057
    }
  },
  {
    "type": "Feature",
    "geometry": {
       "type": "Point",
       "coordinates":  [ 7.607788599999999,47.5513099 ]
    },
    "properties": {
    "FIELD1":340,
    "street":"Grellingerstrasse 11A, 11B",
    "plz":4052
    }
  },
  {
    "type": "Feature",
    "geometry": {
       "type": "Point",
       "coordinates":  [ 7.572363200000001,47.5614397 ]
    },
    "properties": {
    "FIELD1":341,
    "street":"Hagentalerstrasse 10",
    "plz":4055
    }
  },
  {
    "type": "Feature",
    "geometry": {
       "type": "Point",
       "coordinates":  [ 7.5806877,47.5562656 ]
    },
    "properties": {
    "FIELD1":342,
    "street":"Schützengraben 33",
    "plz":4051
    }
  },
  {
    "type": "Feature",
    "geometry": {
       "type": "Point",
       "coordinates":  [ 7.619571000000001,47.5651114 ]
    },
    "properties": {
    "FIELD1":343,
    "street":"Käferholzstrasse 116",
    "plz":4058
    }
  },
  {
    "type": "Feature",
    "geometry": {
       "type": "Point",
       "coordinates":  [ 7.613518300000001,47.5403919 ]
    },
    "properties": {
    "FIELD1":344,
    "street":"Auf dem Wolf 9",
    "plz":4052
    }
  },
  {
    "type": "Feature",
    "geometry": {
       "type": "Point",
       "coordinates":  [ 7.606364500000001,47.5379974 ]
    },
    "properties": {
    "FIELD1":345,
    "street":"Dornacherstrasse 397",
    "plz":4053
    }
  },
  {
    "type": "Feature",
    "geometry": {
       "type": "Point",
       "coordinates":  [ 7.606965499999999,47.5376315 ]
    },
    "properties": {
    "FIELD1":346,
    "street":"Dornacherstrasse 398, 400",
    "plz":4053
    }
  },
  {
    "type": "Feature",
    "geometry": {
       "type": "Point",
       "coordinates":  [ 7.605218199999999,47.5364738 ]
    },
    "properties": {
    "FIELD1":347,
    "street":"Leimgrubenweg 29",
    "plz":4053
    }
  },
  {
    "type": "Feature",
    "geometry": {
       "type": "Point",
       "coordinates":  [ 7.6130687,47.5391431 ]
    },
    "properties": {
    "FIELD1":349,
    "street":"Walkeweg",
    "plz":null
    }
  },
  {
    "type": "Feature",
    "geometry": {
       "type": "Point",
       "coordinates":  [ 7.5872787,47.5566981 ]
    },
    "properties": {
    "FIELD1":350,
    "street":"Rümelinsplatz 13",
    "plz":4001
    }
  },
  {
    "type": "Feature",
    "geometry": {
       "type": "Point",
       "coordinates":  [ 7.600417299999999,47.547507 ]
    },
    "properties": {
    "FIELD1":351,
    "street":"Hagenbachstrasse 18",
    "plz":4052
    }
  },
  {
    "type": "Feature",
    "geometry": {
       "type": "Point",
       "coordinates":  [ 7.600523399999999,47.5474529 ]
    },
    "properties": {
    "FIELD1":352,
    "street":"Hagenbachstrasse 20",
    "plz":4052
    }
  },
  {
    "type": "Feature",
    "geometry": {
       "type": "Point",
       "coordinates":  [ 7.587584499999999,47.5489496 ]
    },
    "properties": {
    "FIELD1":353,
    "street":"Viaduktstrasse 8, 10, 12, 14",
    "plz":4051
    }
  },
  {
    "type": "Feature",
    "geometry": {
       "type": "Point",
       "coordinates":  [ 7.595817299999998,47.57056980000001 ]
    },
    "properties": {
    "FIELD1":354,
    "street":"Brombacherstrasse 7",
    "plz":4057
    }
  },
  {
    "type": "Feature",
    "geometry": {
       "type": "Point",
       "coordinates":  [ 7.602717699999999,47.5681728 ]
    },
    "properties": {
    "FIELD1":355,
    "street":"Schönaustrasse 50",
    "plz":4058
    }
  },
  {
    "type": "Feature",
    "geometry": {
       "type": "Point",
       "coordinates":  [ 7.562024299999999,47.55063209999999 ]
    },
    "properties": {
    "FIELD1":356,
    "street":"Gotthardstrasse 110",
    "plz":4054
    }
  },
  {
    "type": "Feature",
    "geometry": {
       "type": "Point",
       "coordinates":  [ 7.572188199999999,47.5492964 ]
    },
    "properties": {
    "FIELD1":357,
    "street":"Benkenstrasse 15",
    "plz":4054
    }
  },
  {
    "type": "Feature",
    "geometry": {
       "type": "Point",
       "coordinates":  [ 7.5920842,47.5599026 ]
    },
    "properties": {
    "FIELD1":361,
    "street":"Rheingasse 28",
    "plz":4058
    }
  },
  {
    "type": "Feature",
    "geometry": {
       "type": "Point",
       "coordinates":  [ 7.581831800000001,47.5518753 ]
    },
    "properties": {
    "FIELD1":362,
    "street":"Feierabendstrasse 23",
    "plz":4051
    }
  },
  {
    "type": "Feature",
    "geometry": {
       "type": "Point",
       "coordinates":  [ 7.581130499999999,47.5529194 ]
    },
    "properties": {
    "FIELD1":363,
    "street":"Leimenstrasse 56",
    "plz":4051
    }
  },
  {
    "type": "Feature",
    "geometry": {
       "type": "Point",
       "coordinates":  [ 7.596767000000001,47.5394446 ]
    },
    "properties": {
    "FIELD1":364,
    "street":"Thiersteinerallee 91",
    "plz":4053
    }
  },
  {
    "type": "Feature",
    "geometry": {
       "type": "Point",
       "coordinates":  [ 7.5876245,47.54503390000001 ]
    },
    "properties": {
    "FIELD1":365,
    "street":"Gempenstrasse 9",
    "plz":4053
    }
  },
  {
    "type": "Feature",
    "geometry": {
       "type": "Point",
       "coordinates":  [ 7.5879634,47.5402297 ]
    },
    "properties": {
    "FIELD1":367,
    "street":"Dittingerstrasse 45",
    "plz":4053
    }
  },
  {
    "type": "Feature",
    "geometry": {
       "type": "Point",
       "coordinates":  [ 7.561688699999999,47.5504323 ]
    },
    "properties": {
    "FIELD1":368,
    "street":"Gotthardstrasse 105",
    "plz":4054
    }
  },
  {
    "type": "Feature",
    "geometry": {
       "type": "Point",
       "coordinates":  [ 7.577258199999998,47.5554338 ]
    },
    "properties": {
    "FIELD1":369,
    "street":"Austrasse 116",
    "plz":4051
    }
  },
  {
    "type": "Feature",
    "geometry": {
       "type": "Point",
       "coordinates":  [ 7.571285400000001,47.5537656 ]
    },
    "properties": {
    "FIELD1":370,
    "street":"Sennheimerstrasse 20",
    "plz":4054
    }
  },
  {
    "type": "Feature",
    "geometry": {
       "type": "Point",
       "coordinates":  [ 7.5894448,47.5428179 ]
    },
    "properties": {
    "FIELD1":371,
    "street":"Solothurnerstrasse 65",
    "plz":4053
    }
  },
  {
    "type": "Feature",
    "geometry": {
       "type": "Point",
       "coordinates":  [ 7.571088,47.5603816 ]
    },
    "properties": {
    "FIELD1":372,
    "street":"Bartenheimerstrasse 3",
    "plz":4055
    }
  },
  {
    "type": "Feature",
    "geometry": {
       "type": "Point",
       "coordinates":  [ 7.5739202,47.5489864 ]
    },
    "properties": {
    "FIELD1":373,
    "street":"Aescherstrasse 14",
    "plz":4054
    }
  },
  {
    "type": "Feature",
    "geometry": {
       "type": "Point",
       "coordinates":  [ 7.600725499999999,47.5604811 ]
    },
    "properties": {
    "FIELD1":374,
    "street":"Wettsteinallee 41",
    "plz":4058
    }
  },
  {
    "type": "Feature",
    "geometry": {
       "type": "Point",
       "coordinates":  [ 7.571190100000001,47.5677078 ]
    },
    "properties": {
    "FIELD1":376,
    "street":"Flughafenstrasse 30",
    "plz":4056
    }
  },
  {
    "type": "Feature",
    "geometry": {
       "type": "Point",
       "coordinates":  [ 7.602860700000001,47.5601847 ]
    },
    "properties": {
    "FIELD1":378,
    "street":"Rührbergerstrasse 9",
    "plz":4058
    }
  },
  {
    "type": "Feature",
    "geometry": {
       "type": "Point",
       "coordinates":  [ 7.602449099999999,47.56028430000001 ]
    },
    "properties": {
    "FIELD1":380,
    "street":"Chrischonastrasse 39, 39 A, 39 B, 39 C, 39  D, 41, 41 A, 41 B, 41 C, 41 D",
    "plz":4058
    }
  },
  {
    "type": "Feature",
    "geometry": {
       "type": "Point",
       "coordinates":  [ 7.580583,47.5668514 ]
    },
    "properties": {
    "FIELD1":381,
    "street":"St. Johanns-Platz 24",
    "plz":4056
    }
  },
  {
    "type": "Feature",
    "geometry": {
       "type": "Point",
       "coordinates":  [ 7.6127071,47.5563571 ]
    },
    "properties": {
    "FIELD1":382,
    "street":"Farnsburgerstrasse 6",
    "plz":4052
    }
  },
  {
    "type": "Feature",
    "geometry": {
       "type": "Point",
       "coordinates":  [ 7.5870384,47.53422219999999 ]
    },
    "properties": {
    "FIELD1":383,
    "street":"Bruderholzallee 34",
    "plz":4059
    }
  },
  {
    "type": "Feature",
    "geometry": {
       "type": "Point",
       "coordinates":  [ 7.591468499999999,47.5676201 ]
    },
    "properties": {
    "FIELD1":384,
    "street":"Oetlingerstrasse 78",
    "plz":4057
    }
  },
  {
    "type": "Feature",
    "geometry": {
       "type": "Point",
       "coordinates":  [ 7.5835992,47.5569815 ]
    },
    "properties": {
    "FIELD1":385,
    "street":"Spalenvorstadt 3",
    "plz":4051
    }
  },
  {
    "type": "Feature",
    "geometry": {
       "type": "Point",
       "coordinates":  [ 7.595043400000001,47.5540888 ]
    },
    "properties": {
    "FIELD1":388,
    "street":"Dufourstrasse 9",
    "plz":4052
    }
  },
  {
    "type": "Feature",
    "geometry": {
       "type": "Point",
       "coordinates":  [ 7.595206500000001,47.5540208 ]
    },
    "properties": {
    "FIELD1":389,
    "street":"Dufourstrasse 11",
    "plz":4052
    }
  },
  {
    "type": "Feature",
    "geometry": {
       "type": "Point",
       "coordinates":  [ 7.562297000000001,47.54874849999999 ]
    },
    "properties": {
    "FIELD1":390,
    "street":"General Guisan-Strasse 143",
    "plz":4054
    }
  },
  {
    "type": "Feature",
    "geometry": {
       "type": "Point",
       "coordinates":  [ 7.5773264,47.5636462 ]
    },
    "properties": {
    "FIELD1":391,
    "street":"Hebelstrasse 114",
    "plz":4056
    }
  },
  {
    "type": "Feature",
    "geometry": {
       "type": "Point",
       "coordinates":  [ 7.609387399999999,47.5486364 ]
    },
    "properties": {
    "FIELD1":392,
    "street":"St. Alban-Ring 202",
    "plz":4052
    }
  },
  {
    "type": "Feature",
    "geometry": {
       "type": "Point",
       "coordinates":  [ 7.589716999999999,47.5779471 ]
    },
    "properties": {
    "FIELD1":393,
    "street":"Kleinhüningerstrasse 115",
    "plz":4057
    }
  },
  {
    "type": "Feature",
    "geometry": {
       "type": "Point",
       "coordinates":  [ 7.591838999999999,47.53465749999999 ]
    },
    "properties": {
    "FIELD1":394,
    "street":"Gundeldingerrain 109",
    "plz":4059
    }
  },
  {
    "type": "Feature",
    "geometry": {
       "type": "Point",
       "coordinates":  [ 7.5895882,47.5527615 ]
    },
    "properties": {
    "FIELD1":395,
    "street":"Theaterstrasse 20",
    "plz":4051
    }
  },
  {
    "type": "Feature",
    "geometry": {
       "type": "Point",
       "coordinates":  [ 7.5732029,47.55963819999999 ]
    },
    "properties": {
    "FIELD1":396,
    "street":"Türkheimerstrasse 62",
    "plz":4055
    }
  },
  {
    "type": "Feature",
    "geometry": {
       "type": "Point",
       "coordinates":  [ 7.609661000000001,47.5700088 ]
    },
    "properties": {
    "FIELD1":398,
    "street":"Schorenweg 9",
    "plz":4058
    }
  },
  {
    "type": "Feature",
    "geometry": {
       "type": "Point",
       "coordinates":  [ 7.58482,47.5438014 ]
    },
    "properties": {
    "FIELD1":399,
    "street":"Frobenstrasse 60, 60A",
    "plz":4053
    }
  },
  {
    "type": "Feature",
    "geometry": {
       "type": "Point",
       "coordinates":  [ 7.5633718,47.56693300000001 ]
    },
    "properties": {
    "FIELD1":400,
    "street":"Burgfelderstrasse 205, 211",
    "plz":4055
    }
  },
  {
    "type": "Feature",
    "geometry": {
       "type": "Point",
       "coordinates":  [ 7.619172600000001,47.5510319 ]
    },
    "properties": {
    "FIELD1":401,
    "street":"Karpfenweg 11",
    "plz":4052
    }
  },
  {
    "type": "Feature",
    "geometry": {
       "type": "Point",
       "coordinates":  [ 7.6167598,47.5515805 ]
    },
    "properties": {
    "FIELD1":405,
    "street":"In den Klostermatten 10, 12",
    "plz":4052
    }
  },
  {
    "type": "Feature",
    "geometry": {
       "type": "Point",
       "coordinates":  [ 7.594674199999999,47.5368752 ]
    },
    "properties": {
    "FIELD1":406,
    "street":"Passwangstrasse 15",
    "plz":4059
    }
  },
  {
    "type": "Feature",
    "geometry": {
       "type": "Point",
       "coordinates":  [ 7.5922109,47.5669895 ]
    },
    "properties": {
    "FIELD1":407,
    "street":"Matthäusstrasse 22",
    "plz":4057
    }
  },
  {
    "type": "Feature",
    "geometry": {
       "type": "Point",
       "coordinates":  [ 7.5999098,47.5681923 ]
    },
    "properties": {
    "FIELD1":409,
    "street":"Erlenstrasse 30",
    "plz":4058
    }
  },
  {
    "type": "Feature",
    "geometry": {
       "type": "Point",
       "coordinates":  [ 7.591793799999999,47.5605686 ]
    },
    "properties": {
    "FIELD1":410,
    "street":"Rheingasse 11",
    "plz":4058
    }
  },
  {
    "type": "Feature",
    "geometry": {
       "type": "Point",
       "coordinates":  [ 7.589252799999999,47.5506269 ]
    },
    "properties": {
    "FIELD1":411,
    "street":"Wallstrasse 16",
    "plz":4051
    }
  },
  {
    "type": "Feature",
    "geometry": {
       "type": "Point",
       "coordinates":  [ 7.601239000000001,47.5294193 ]
    },
    "properties": {
    "FIELD1":412,
    "street":"Zur Gempenfluh 56",
    "plz":4059
    }
  },
  {
    "type": "Feature",
    "geometry": {
       "type": "Point",
       "coordinates":  [ 7.5617746,47.5473653 ]
    },
    "properties": {
    "FIELD1":413,
    "street":"Furkastrasse 25",
    "plz":4054
    }
  },
  {
    "type": "Feature",
    "geometry": {
       "type": "Point",
       "coordinates":  [ 7.5768863,47.5505232 ]
    },
    "properties": {
    "FIELD1":414,
    "street":"Birsigstrasse 125",
    "plz":4054
    }
  },
  {
    "type": "Feature",
    "geometry": {
       "type": "Point",
       "coordinates":  [ 7.5960564,47.5466946 ]
    },
    "properties": {
    "FIELD1":415,
    "street":"Lindenhofstrasse 30, 32, 34",
    "plz":4052
    }
  },
  {
    "type": "Feature",
    "geometry": {
       "type": "Point",
       "coordinates":  [ 7.559449499999999,47.5471519 ]
    },
    "properties": {
    "FIELD1":416,
    "street":"Göschenenstrasse 70",
    "plz":4054
    }
  },
  {
    "type": "Feature",
    "geometry": {
       "type": "Point",
       "coordinates":  [ 7.572533099999999,47.5605723 ]
    },
    "properties": {
    "FIELD1":417,
    "street":"Hegenheimerstrasse 30",
    "plz":4055
    }
  },
  {
    "type": "Feature",
    "geometry": {
       "type": "Point",
       "coordinates":  [ 7.606656399999999,47.53840659999999 ]
    },
    "properties": {
    "FIELD1":418,
    "street":"Münchensteinerstrasse 220",
    "plz":4053
    }
  },
  {
    "type": "Feature",
    "geometry": {
       "type": "Point",
       "coordinates":  [ 7.581348800000001,47.5550776 ]
    },
    "properties": {
    "FIELD1":419,
    "street":"Eulerstrasse 22",
    "plz":4051
    }
  },
  {
    "type": "Feature",
    "geometry": {
       "type": "Point",
       "coordinates":  [ 7.5579908,47.546806 ]
    },
    "properties": {
    "FIELD1":420,
    "street":"Weiherhofstrasse 135",
    "plz":4054
    }
  },
  {
    "type": "Feature",
    "geometry": {
       "type": "Point",
       "coordinates":  [ 7.590581299999999,47.526135 ]
    },
    "properties": {
    "FIELD1":422,
    "street":"Bedrettostrasse 6",
    "plz":4059
    }
  },
  {
    "type": "Feature",
    "geometry": {
       "type": "Point",
       "coordinates":  [ 7.603993999999999,47.5485812 ]
    },
    "properties": {
    "FIELD1":423,
    "street":"Mathilde Paravicini-Strasse 5, 7, 9, 11",
    "plz":4052
    }
  },
  {
    "type": "Feature",
    "geometry": {
       "type": "Point",
       "coordinates":  [ 7.5638685,47.5509336 ]
    },
    "properties": {
    "FIELD1":424,
    "street":"Oberalpstrasse 82",
    "plz":4054
    }
  },
  {
    "type": "Feature",
    "geometry": {
       "type": "Point",
       "coordinates":  [ 7.570588099999999,47.5607294 ]
    },
    "properties": {
    "FIELD1":425,
    "street":"Hegenheimerstrasse 71",
    "plz":4055
    }
  },
  {
    "type": "Feature",
    "geometry": {
       "type": "Point",
       "coordinates":  [ 7.616684500000001,47.5650992 ]
    },
    "properties": {
    "FIELD1":426,
    "street":"Im Heimatland 84",
    "plz":4058
    }
  },
  {
    "type": "Feature",
    "geometry": {
       "type": "Point",
       "coordinates":  [ 7.6018464,47.554064 ]
    },
    "properties": {
    "FIELD1":427,
    "street":"St. Alban-Kirchrain",
    "plz":4052
    }
  },
  {
    "type": "Feature",
    "geometry": {
       "type": "Point",
       "coordinates":  [ 7.5650229,47.56722 ]
    },
    "properties": {
    "FIELD1":429,
    "street":"Julia Gauss-Strasse 15, 17",
    "plz":4056
    }
  },
  {
    "type": "Feature",
    "geometry": {
       "type": "Point",
       "coordinates":  [ 7.5708168,47.5618713 ]
    },
    "properties": {
    "FIELD1":430,
    "street":"Hagentalerstrasse 41, 43, 45",
    "plz":4055
    }
  },
  {
    "type": "Feature",
    "geometry": {
       "type": "Point",
       "coordinates":  [ 7.564128699999999,47.548595 ]
    },
    "properties": {
    "FIELD1":433,
    "street":"Erstfeldstrasse 16",
    "plz":4054
    }
  },
  {
    "type": "Feature",
    "geometry": {
       "type": "Point",
       "coordinates":  [ 7.5671984,47.5655988 ]
    },
    "properties": {
    "FIELD1":435,
    "street":"Glaserbergstrasse 80",
    "plz":4056
    }
  },
  {
    "type": "Feature",
    "geometry": {
       "type": "Point",
       "coordinates":  [ 7.5875006,47.53621 ]
    },
    "properties": {
    "FIELD1":436,
    "street":"Lerchenstrasse 98",
    "plz":4059
    }
  },
  {
    "type": "Feature",
    "geometry": {
       "type": "Point",
       "coordinates":  [ 7.5741191,47.55415989999999 ]
    },
    "properties": {
    "FIELD1":437,
    "street":"Belchenstrasse 5",
    "plz":4054
    }
  },
  {
    "type": "Feature",
    "geometry": {
       "type": "Point",
       "coordinates":  [ 7.5741455,47.55408790000001 ]
    },
    "properties": {
    "FIELD1":438,
    "street":"Belchenstrasse 7",
    "plz":4054
    }
  },
  {
    "type": "Feature",
    "geometry": {
       "type": "Point",
       "coordinates":  [ 7.605193799999999,47.5499555 ]
    },
    "properties": {
    "FIELD1":439,
    "street":"Hardstrasse 60",
    "plz":4052
    }
  },
  {
    "type": "Feature",
    "geometry": {
       "type": "Point",
       "coordinates":  [ 7.619374899999999,47.5676161 ]
    },
    "properties": {
    "FIELD1":440,
    "street":"Binzenstrasse 44",
    "plz":4058
    }
  },
  {
    "type": "Feature",
    "geometry": {
       "type": "Point",
       "coordinates":  [ 7.570055099999998,47.5594857 ]
    },
    "properties": {
    "FIELD1":441,
    "street":"Bartenheimerstrasse 37",
    "plz":4055
    }
  },
  {
    "type": "Feature",
    "geometry": {
       "type": "Point",
       "coordinates":  [ 7.578533800000001,47.5686713 ]
    },
    "properties": {
    "FIELD1":442,
    "street":"Ryffstrasse 16",
    "plz":4056
    }
  },
  {
    "type": "Feature",
    "geometry": {
       "type": "Point",
       "coordinates":  [ 7.6006938,47.54232620000001 ]
    },
    "properties": {
    "FIELD1":444,
    "street":"Delsbergerallee 4",
    "plz":4053
    }
  },
  {
    "type": "Feature",
    "geometry": {
       "type": "Point",
       "coordinates":  [ 7.6111075,47.5465113 ]
    },
    "properties": {
    "FIELD1":445,
    "street":"Speiserstrasse 106",
    "plz":4052
    }
  },
  {
    "type": "Feature",
    "geometry": {
       "type": "Point",
       "coordinates":  [ 7.6103627,47.5544899 ]
    },
    "properties": {
    "FIELD1":446,
    "street":"Schauenburgerstrasse 39",
    "plz":4052
    }
  },
  {
    "type": "Feature",
    "geometry": {
       "type": "Point",
       "coordinates":  [ 7.604432399999999,47.5694349 ]
    },
    "properties": {
    "FIELD1":447,
    "street":"Schwarzwaldallee 267",
    "plz":4058
    }
  },
  {
    "type": "Feature",
    "geometry": {
       "type": "Point",
       "coordinates":  [ 7.596386400000001,47.5424205 ]
    },
    "properties": {
    "FIELD1":449,
    "street":"Güterstrasse 233",
    "plz":4053
    }
  },
  {
    "type": "Feature",
    "geometry": {
       "type": "Point",
       "coordinates":  [ 7.6000335,47.561151 ]
    },
    "properties": {
    "FIELD1":451,
    "street":"Turnerstrasse 18",
    "plz":4058
    }
  },
  {
    "type": "Feature",
    "geometry": {
       "type": "Point",
       "coordinates":  [ 7.5991994,47.5533276 ]
    },
    "properties": {
    "FIELD1":452,
    "street":"St. Alban-Vorstadt 82B",
    "plz":4052
    }
  },
  {
    "type": "Feature",
    "geometry": {
       "type": "Point",
       "coordinates":  [ 7.6071127,47.5518505 ]
    },
    "properties": {
    "FIELD1":453,
    "street":"Gellertstrasse 18",
    "plz":4052
    }
  },
  {
    "type": "Feature",
    "geometry": {
       "type": "Point",
       "coordinates":  [ 7.6031621,47.5455245 ]
    },
    "properties": {
    "FIELD1":454,
    "street":"St. Jakobs-Strasse 155",
    "plz":4052
    }
  },
  {
    "type": "Feature",
    "geometry": {
       "type": "Point",
       "coordinates":  [ 7.5788956,47.5506828 ]
    },
    "properties": {
    "FIELD1":455,
    "street":"Oberwilerstrasse 22",
    "plz":4054
    }
  },
  {
    "type": "Feature",
    "geometry": {
       "type": "Point",
       "coordinates":  [ 7.58372,47.5436597 ]
    },
    "properties": {
    "FIELD1":456,
    "street":"Reichensteinerstrasse 43",
    "plz":4053
    }
  },
  {
    "type": "Feature",
    "geometry": {
       "type": "Point",
       "coordinates":  [ 7.611725600000001,47.5562039 ]
    },
    "properties": {
    "FIELD1":457,
    "street":"St. Alban-Rheinweg 202",
    "plz":4052
    }
  },
  {
    "type": "Feature",
    "geometry": {
       "type": "Point",
       "coordinates":  [ 7.583551699999998,47.5539 ]
    },
    "properties": {
    "FIELD1":459,
    "street":"Leonhardsstrasse 51",
    "plz":4051
    }
  },
  {
    "type": "Feature",
    "geometry": {
       "type": "Point",
       "coordinates":  [ 7.5926722,47.5657028 ]
    },
    "properties": {
    "FIELD1":460,
    "street":"Haltingerstrasse 17",
    "plz":4057
    }
  },
  {
    "type": "Feature",
    "geometry": {
       "type": "Point",
       "coordinates":  [ 7.5844294,47.5508651 ]
    },
    "properties": {
    "FIELD1":461,
    "street":"Birsigstrasse 18",
    "plz":4054
    }
  },
  {
    "type": "Feature",
    "geometry": {
       "type": "Point",
       "coordinates":  [ 7.5701277,47.5679968 ]
    },
    "properties": {
    "FIELD1":462,
    "street":"Flughafenstrasse 47",
    "plz":4056
    }
  },
  {
    "type": "Feature",
    "geometry": {
       "type": "Point",
       "coordinates":  [ 7.598839199999999,47.55725839999999 ]
    },
    "properties": {
    "FIELD1":463,
    "street":"Schaffhauserrheinweg 9",
    "plz":4058
    }
  },
  {
    "type": "Feature",
    "geometry": {
       "type": "Point",
       "coordinates":  [ 7.6120655,47.56742930000001 ]
    },
    "properties": {
    "FIELD1":466,
    "street":"Riehenstrasse 250",
    "plz":4058
    }
  },
  {
    "type": "Feature",
    "geometry": {
       "type": "Point",
       "coordinates":  [ 7.5982397,47.5345748 ]
    },
    "properties": {
    "FIELD1":467,
    "street":"Niklaus von Flüe-Strasse 19",
    "plz":4059
    }
  },
  {
    "type": "Feature",
    "geometry": {
       "type": "Point",
       "coordinates":  [ 7.6021672,47.5680282 ]
    },
    "properties": {
    "FIELD1":468,
    "street":"Schönaustrasse 46",
    "plz":4058
    }
  },
  {
    "type": "Feature",
    "geometry": {
       "type": "Point",
       "coordinates":  [ 7.566036999999999,47.5659986 ]
    },
    "properties": {
    "FIELD1":469,
    "street":"Burgfelderstrasse 160",
    "plz":4055
    }
  },
  {
    "type": "Feature",
    "geometry": {
       "type": "Point",
       "coordinates":  [ 7.5871153,47.560044 ]
    },
    "properties": {
    "FIELD1":470,
    "street":"Spiegelgasse 5",
    "plz":4051
    }
  },
  {
    "type": "Feature",
    "geometry": {
       "type": "Point",
       "coordinates":  [ 7.5867875,47.5592292 ]
    },
    "properties": {
    "FIELD1":471,
    "street":"Fischmarkt 11",
    "plz":4051
    }
  },
  {
    "type": "Feature",
    "geometry": {
       "type": "Point",
       "coordinates":  [ 7.587087899999998,47.5597652 ]
    },
    "properties": {
    "FIELD1":472,
    "street":"Spiegelgasse 15",
    "plz":4051
    }
  },
  {
    "type": "Feature",
    "geometry": {
       "type": "Point",
       "coordinates":  [ 7.5870749,47.5598552 ]
    },
    "properties": {
    "FIELD1":473,
    "street":"Spiegelgasse 11",
    "plz":4051
    }
  },
  {
    "type": "Feature",
    "geometry": {
       "type": "Point",
       "coordinates":  [ 7.586690000000001,47.5504032 ]
    },
    "properties": {
    "FIELD1":474,
    "street":"Innere Margarethenstrasse 6",
    "plz":4051
    }
  },
  {
    "type": "Feature",
    "geometry": {
       "type": "Point",
       "coordinates":  [ 7.5895637,47.5687136 ]
    },
    "properties": {
    "FIELD1":475,
    "street":"Flachsländerstrasse 2",
    "plz":4057
    }
  },
  {
    "type": "Feature",
    "geometry": {
       "type": "Point",
       "coordinates":  [ 7.5774029,47.5601729 ]
    },
    "properties": {
    "FIELD1":476,
    "street":"Missionsstrasse 34, 36",
    "plz":4055
    }
  },
  {
    "type": "Feature",
    "geometry": {
       "type": "Point",
       "coordinates":  [ 7.5623353,47.5655383 ]
    },
    "properties": {
    "FIELD1":477,
    "street":"Markircherstrasse 50",
    "plz":4055
    }
  },
  {
    "type": "Feature",
    "geometry": {
       "type": "Point",
       "coordinates":  [ 7.5622015,47.5653973 ]
    },
    "properties": {
    "FIELD1":478,
    "street":"Markircherstrasse 52",
    "plz":4055
    }
  },
  {
    "type": "Feature",
    "geometry": {
       "type": "Point",
       "coordinates":  [ 7.561961800000001,47.5651637 ]
    },
    "properties": {
    "FIELD1":479,
    "street":"Markircherstrasse 56",
    "plz":4055
    }
  },
  {
    "type": "Feature",
    "geometry": {
       "type": "Point",
       "coordinates":  [ 7.561841899999999,47.5650559 ]
    },
    "properties": {
    "FIELD1":480,
    "street":"Markircherstrasse  58",
    "plz":4055
    }
  },
  {
    "type": "Feature",
    "geometry": {
       "type": "Point",
       "coordinates":  [ 7.578029399999999,47.5697091 ]
    },
    "properties": {
    "FIELD1":481,
    "street":"Wattstrasse",
    "plz":4056
    }
  },
  {
    "type": "Feature",
    "geometry": {
       "type": "Point",
       "coordinates":  [ 7.59237,47.58108 ]
    },
    "properties": {
    "FIELD1":482,
    "street":"Wiesendamm",
    "plz":4057
    }
  },
  {
    "type": "Feature",
    "geometry": {
       "type": "Point",
       "coordinates":  [ 7.5997142,47.5655688 ]
    },
    "properties": {
    "FIELD1":484,
    "street":"Isteinerstrasse",
    "plz":4058
    }
  },
  {
    "type": "Feature",
    "geometry": {
       "type": "Point",
       "coordinates":  [ 7.594120500000001,47.5626238 ]
    },
    "properties": {
    "FIELD1":485,
    "street":"Claragraben",
    "plz":null
    }
  },
  {
    "type": "Feature",
    "geometry": {
       "type": "Point",
       "coordinates":  [ 7.6049495,47.5502479 ]
    },
    "properties": {
    "FIELD1":486,
    "street":"Hardstrasse",
    "plz":4052
    }
  },
  {
    "type": "Feature",
    "geometry": {
       "type": "Point",
       "coordinates":  [ 7.591430099999998,47.5440237 ]
    },
    "properties": {
    "FIELD1":487,
    "street":"Pfeffingerstrasse",
    "plz":4053
    }
  },
  {
    "type": "Feature",
    "geometry": {
       "type": "Point",
       "coordinates":  [ 7.594012299999999,47.5427031 ]
    },
    "properties": {
    "FIELD1":488,
    "street":"Bruderholzstrasse",
    "plz":4053
    }
  },
  {
    "type": "Feature",
    "geometry": {
       "type": "Point",
       "coordinates":  [ 7.593087299999999,47.5440153 ]
    },
    "properties": {
    "FIELD1":489,
    "street":"Zwingerstrasse",
    "plz":4053
    }
  },
  {
    "type": "Feature",
    "geometry": {
       "type": "Point",
       "coordinates":  [ 7.58006,47.54982 ]
    },
    "properties": {
    "FIELD1":490,
    "street":"Birsigstrasse",
    "plz":null
    }
  },
  {
    "type": "Feature",
    "geometry": {
       "type": "Point",
       "coordinates":  [ 7.580409899999998,47.5554386 ]
    },
    "properties": {
    "FIELD1":491,
    "street":"Schützenmattstrasse",
    "plz":4051
    }
  },
  {
    "type": "Feature",
    "geometry": {
       "type": "Point",
       "coordinates":  [ 7.563582599999999,47.5511975 ]
    },
    "properties": {
    "FIELD1":492,
    "street":"Tessinstrasse",
    "plz":4054
    }
  },
  {
    "type": "Feature",
    "geometry": {
       "type": "Point",
       "coordinates":  [ 7.580688,47.5563646 ]
    },
    "properties": {
    "FIELD1":493,
    "street":"Schützengraben 35",
    "plz":4051
    }
  },
  {
    "type": "Feature",
    "geometry": {
       "type": "Point",
       "coordinates":  [ 7.5794568,47.5559471 ]
    },
    "properties": {
    "FIELD1":494,
    "street":"Spalentorweg",
    "plz":4051
    }
  },
  {
    "type": "Feature",
    "geometry": {
       "type": "Point",
       "coordinates":  [ 7.582403500000001,47.5573398 ]
    },
    "properties": {
    "FIELD1":495,
    "street":"Spalenvorstadt 19",
    "plz":4051
    }
  },
  {
    "type": "Feature",
    "geometry": {
       "type": "Point",
       "coordinates":  [ 7.5963072,47.5636744 ]
    },
    "properties": {
    "FIELD1":496,
    "street":"Hammerstrasse 80",
    "plz":4057
    }
  },
  {
    "type": "Feature",
    "geometry": {
       "type": "Point",
       "coordinates":  [ 7.5639182,47.5664837 ]
    },
    "properties": {
    "FIELD1":497,
    "street":"Markircherstrasse 3",
    "plz":4055
    }
  },
  {
    "type": "Feature",
    "geometry": {
       "type": "Point",
       "coordinates":  [ 7.571209399999999,47.5608878 ]
    },
    "properties": {
    "FIELD1":498,
    "street":"Hegenheimerstrasse 52",
    "plz":4055
    }
  },
  {
    "type": "Feature",
    "geometry": {
       "type": "Point",
       "coordinates":  [ 7.5952736,47.5419738 ]
    },
    "properties": {
    "FIELD1":499,
    "street":"Bärschwilerstrasse 12",
    "plz":4053
    }
  },
  {
    "type": "Feature",
    "geometry": {
       "type": "Point",
       "coordinates":  [ 7.591971899999999,47.5439209 ]
    },
    "properties": {
    "FIELD1":500,
    "street":"Güterstrasse 173, 175, 177, 179",
    "plz":4053
    }
  },
  {
    "type": "Feature",
    "geometry": {
       "type": "Point",
       "coordinates":  [ 7.6002381,47.5453667 ]
    },
    "properties": {
    "FIELD1":501,
    "street":"Grosspeterstrasse 9, 11",
    "plz":4052
    }
  },
  {
    "type": "Feature",
    "geometry": {
       "type": "Point",
       "coordinates":  [ 7.6005059,47.5460499 ]
    },
    "properties": {
    "FIELD1":502,
    "street":"Jacob  Burckhardt-Strasse 67",
    "plz":4052
    }
  },
  {
    "type": "Feature",
    "geometry": {
       "type": "Point",
       "coordinates":  [ 7.5759115,47.5688662 ]
    },
    "properties": {
    "FIELD1":503,
    "street":"Murbacherstrasse 52",
    "plz":4056
    }
  },
  {
    "type": "Feature",
    "geometry": {
       "type": "Point",
       "coordinates":  [ 7.5755469,47.5669653 ]
    },
    "properties": {
    "FIELD1":504,
    "street":"Davidsbodenstrasse 62, 64",
    "plz":4056
    }
  },
  {
    "type": "Feature",
    "geometry": {
       "type": "Point",
       "coordinates":  [ 7.5856935,47.554046 ]
    },
    "properties": {
    "FIELD1":505,
    "street":"Steinengrabe",
    "plz":4051
    }
  },
  {
    "type": "Feature",
    "geometry": {
       "type": "Point",
       "coordinates":  [ 7.6132372,47.5681291 ]
    },
    "properties": {
    "FIELD1":506,
    "street":"Riehenstrasse 280",
    "plz":4058
    }
  },
  {
    "type": "Feature",
    "geometry": {
       "type": "Point",
       "coordinates":  [ 7.5945176,47.5423526 ]
    },
    "properties": {
    "FIELD1":507,
    "street":"Baumgartenweg 6",
    "plz":4053
    }
  },
  {
    "type": "Feature",
    "geometry": {
       "type": "Point",
       "coordinates":  [ 7.579088699999999,47.549062 ]
    },